City_ID,City,Lat,Lng,Max Temp,Humidity,Cloudiness,Wind Speed,Country,Date
0,east ballina,-28.8667,153.5833,63.81,60,0,8.48,AU,1691705136
1,grytviken,-54.2811,-36.5092,30.09,98,96,8.7,GS,1691705136
2,hadibu,12.65,54.0333,77.94,82,45,15.17,YE,1691705136
3,itapirapua,-15.8233,-50.6133,86.63,25,15,4.18,BR,1691705136
4,smithers,54.7804,-127.1743,66.52,48,75,3.44,CA,1691705136
5,puerto natales,-51.7236,-72.4875,33.94,86,75,6.08,CL,1691705136
6,barra do corda,-5.5,-45.25,83.88,34,34,3.31,BR,1691704918
7,cannonvale,-20.2833,148.7,65.59,71,2,9.75,AU,1691705136
8,port-aux-francais,-49.35,70.2167,39.54,80,100,35.05,TF,1691705137
9,danilov,58.1908,40.1717,60.53,96,4,3.69,RU,1691705137
10,isafjordur,66.0755,-23.124,45.27,81,100,9.95,IS,1691705137
11,hithadhoo,-0.6,73.0833,81.48,78,94,12.01,MV,1691705137
12,puerto ayora,-0.7393,-90.3518,82.36,93,54,10.0,EC,1691705137
13,brak,27.5496,14.2714,83.16,25,0,12.35,LY,1691705137
14,selma,36.5708,-119.6121,96.35,39,20,5.75,US,1691705137
15,undurkhaan,47.3194,110.6556,59.54,92,98,4.36,MN,1691705138
16,adamstown,-25.066,-130.1015,64.53,59,24,22.03,PN,1691705138
17,zaragoza,41.6561,-0.8773,82.02,42,0,18.41,ES,1691704900
18,emerald,-23.5333,148.1667,61.05,73,0,4.56,AU,1691705138
19,longyearbyen,78.2186,15.6401,48.04,87,100,2.3,SJ,1691705138
20,stanley,54.868,-1.6985,66.79,84,0,4.61,GB,1691705138
21,pavlodar,52.3,76.95,57.0,94,100,15.66,KZ,1691705138
22,jamestown,42.097,-79.2353,76.01,51,0,14.97,US,1691704320
23,minas de marcona,-15.2119,-75.1103,57.87,79,34,15.17,PE,1691705139
24,urzhar,47.093,81.6294,73.81,48,65,4.99,KZ,1691705139
25,katsuura,35.1333,140.3,80.44,87,4,10.31,JP,1691705139
26,brookings,44.3114,-96.7984,85.17,67,20,21.85,US,1691705140
27,albany,42.6001,-73.9662,73.81,95,100,0.81,US,1691704979
28,taro,-8.3862,115.28,66.2,85,69,3.36,ID,1691705140
29,utrik,11.2278,169.8474,82.02,71,10,11.23,MH,1691705140
30,yellowknife,62.456,-114.3525,70.32,46,100,3.44,CA,1691704882
31,la passe,45.5549,-0.8967,68.23,91,49,7.85,FR,1691705140
32,rundu,-17.9333,19.7667,61.99,31,49,7.9,NA,1691705140
33,saipan,15.1355,145.701,79.5,94,100,14.97,MP,1691705140
34,fort mcmurray,56.7268,-111.381,58.59,94,100,13.8,CA,1691705141
35,lebu,-37.6167,-73.65,49.15,80,51,12.37,CL,1691705141
36,yarovoye,52.9273,78.58,60.06,92,100,11.25,RU,1691705141
37,georgetown,5.4112,100.3354,78.73,92,20,3.44,MY,1691705141
38,spring creek,40.7266,-115.5859,88.81,13,0,10.56,US,1691705141
39,olonkinbyen,70.9221,-8.7187,44.06,99,100,10.51,SJ,1691705141
40,tiksi,71.6872,128.8694,64.18,47,4,6.22,RU,1691705141
41,luwuk,-0.9516,122.7875,75.69,86,100,4.81,ID,1691705141
42,edinburgh of the seven seas,-37.0676,-12.3116,53.47,72,42,27.56,SH,1691705142
43,las lomitas,-24.7096,-60.593,82.4,40,18,1.88,AR,1691705142
44,nanakuli,21.3906,-158.1547,87.75,54,75,10.36,US,1691705142
45,anadyr,64.75,177.4833,50.5,71,75,11.18,RU,1691705142
46,cabedelo,-6.9811,-34.8339,77.67,82,10,13.82,BR,1691704957
47,west island,-12.1568,96.8225,76.98,88,75,14.97,CC,1691705142
48,port alfred,-33.5906,26.891,67.68,55,0,10.87,ZA,1691705142
49,happy valley-goose bay,53.3168,-60.3315,62.91,63,75,5.75,CA,1691705142
50,susuman,62.7833,148.1667,58.93,50,6,1.86,RU,1691705143
51,al muwayh,22.4333,41.7583,86.94,17,69,1.61,SA,1691705143
52,borkum,53.5809,6.6915,64.35,87,65,9.08,DE,1691705143
53,waitangi,-43.9535,-176.5597,53.82,95,83,4.0,NZ,1691705143
54,nizhniy odes,63.6445,54.856,53.15,76,0,4.36,RU,1691705143
55,blackmans bay,-43.0167,147.3167,49.69,81,100,6.67,AU,1691705143
56,neiafu,-18.65,-173.9833,81.28,89,40,8.05,TO,1691705143
57,bikenibeu village,1.3673,173.1241,87.76,74,40,4.61,KI,1691705144
58,kill devil hills,36.0307,-75.676,86.02,76,40,24.16,US,1691704951
59,constantia,44.1833,28.65,70.7,59,100,8.55,RO,1691705144
60,vila do maio,15.1333,-23.2167,79.59,75,72,12.88,CV,1691705144
61,badger,64.8,-147.5333,71.13,79,100,0.0,US,1691705144
62,jiutai,44.1525,125.8328,70.14,96,100,8.81,CN,1691705144
63,iqaluit,63.7506,-68.5145,46.13,87,40,12.66,CA,1691705144
64,santa ana de yacuma,-13.75,-65.4333,93.15,43,75,9.22,BO,1691705145
65,glendive,47.1053,-104.7125,85.62,28,40,13.8,US,1691704868
66,remire-montjoly,4.9167,-52.2667,84.24,79,45,3.44,GF,1691705145
67,cabo san lucas,22.8909,-109.9124,89.62,69,40,13.8,MX,1691704946
68,manta,-0.95,-80.7333,85.78,78,20,17.0,EC,1691704974
69,vredendal,-31.6683,18.5012,71.15,22,3,17.05,ZA,1691705145
70,enewetak,11.3474,162.3373,83.14,77,29,11.77,MH,1691705145
71,petropavlovsk-kamchatsky,53.0452,158.6483,54.19,71,0,6.71,RU,1691705145
72,nemuro,43.3236,145.575,66.88,98,100,13.31,JP,1691705146
73,papatowai,-46.5619,169.4708,40.96,77,100,4.32,NZ,1691705146
74,tromso,69.6496,18.957,55.42,94,75,4.61,NO,1691705146
75,vigan,17.5747,120.3869,78.67,87,100,7.07,PH,1691705146
76,sitka,57.0531,-135.33,60.69,88,100,0.0,US,1691705146
77,qaqortoq,60.7167,-46.0333,45.1,77,90,3.13,GL,1691705146
78,north bend,43.4065,-124.2243,81.25,56,0,18.41,US,1691705109
79,peterhead,57.5058,-1.7981,63.0,96,4,11.81,GB,1691705146
80,mukalla,14.5425,49.1242,84.47,69,96,8.77,YE,1691705146
81,akureyri,65.6835,-18.0878,48.83,81,27,3.96,IS,1691705123
82,vernal,40.4555,-109.5287,89.31,20,20,5.75,US,1691705111
83,geraldton,-28.7667,114.6,55.81,94,100,6.91,AU,1691705147
84,ancud,-41.8697,-73.8203,45.61,74,96,17.13,CL,1691705147
85,invercargill,-46.4,168.35,37.02,88,100,5.01,NZ,1691705147
86,bethel,41.3712,-73.414,73.2,84,100,1.01,US,1691705070
87,vorgashor,67.5833,63.95,40.68,95,50,8.1,RU,1691705147
88,karratha,-20.7377,116.8463,67.95,55,0,7.0,AU,1691705147
89,sheregesh,52.9209,87.9869,59.32,76,100,4.03,RU,1691705147
90,vadso,70.0744,29.7487,68.88,68,0,2.3,NO,1691705148
91,atafu village,-8.5421,-172.5159,82.85,71,45,11.16,TK,1691705148
92,zhangye,38.9342,100.4517,68.0,69,70,6.89,CN,1691705148
93,ribeira grande,38.5167,-28.7,73.8,68,20,9.22,PT,1691705148
94,zhezqazghan,47.7833,67.7667,69.67,50,8,15.26,KZ,1691705148
95,thompson,55.7435,-97.8558,68.16,42,75,5.75,CA,1691704886
96,muravlenko,63.7898,74.523,46.76,78,82,21.39,RU,1691705148
97,alice springs,-23.7,133.8833,42.35,65,1,5.75,AU,1691705148
98,lihue,21.9789,-159.3672,87.39,59,0,17.27,US,1691705149
99,buka,40.8108,69.1986,74.35,32,0,3.49,UZ,1691705149
100,bontang,0.1333,117.5,75.85,91,100,9.8,ID,1691705149
101,san patricio,28.017,-97.5169,101.17,48,0,19.66,US,1691705149
102,mount isa,-20.7333,139.5,46.17,87,5,0.0,AU,1691704881
103,taoudenni,22.6783,-3.9836,102.6,11,31,15.82,ML,1691705149
104,itaqui,-29.1253,-56.5531,70.7,88,100,5.79,BR,1691705149
105,iskateley,67.6803,53.1512,50.74,81,14,4.85,RU,1691705149
106,wailua homesteads,22.0669,-159.378,86.79,68,0,17.27,US,1691705149
107,okhotsk,59.3833,143.3,58.23,81,96,6.46,RU,1691705150
108,rumoi,43.9344,141.6428,75.25,86,81,2.82,JP,1691705150
109,kodiak,57.79,-152.4072,58.51,72,100,6.91,US,1691705150
110,vilyuchinsk,52.9306,158.4028,55.67,72,73,1.07,RU,1691705150
111,puerto aysen,-45.4,-72.7,46.44,76,100,18.41,CL,1691705150
112,lata,40.1629,-8.3327,61.43,93,0,2.15,PT,1691705150
113,hawaiian paradise park,19.5933,-154.9731,82.04,86,100,3.0,US,1691705150
114,gadzhiyevo,69.2551,33.3362,62.38,74,0,11.86,RU,1691705151
115,turpan,42.9333,89.1667,93.54,21,0,5.91,CN,1691705151
116,jhunjhunun,28.1307,75.4014,85.26,58,94,14.61,IN,1691705151
117,puerto madero,14.7208,-92.4215,93.4,66,40,11.5,MX,1691705151
118,santa adelia,-21.2428,-48.8042,75.9,34,0,8.75,BR,1691705151
119,khovd,48.0056,91.6419,63.91,50,0,3.0,MN,1691705151
120,las heras,-46.5419,-68.9359,45.97,71,55,17.38,AR,1691704855
121,coquimbo,-29.9533,-71.3436,60.53,82,20,9.22,CL,1691705152
122,talnakh,69.4865,88.3972,51.21,63,93,15.59,RU,1691705152
123,aasiaat,68.7098,-52.8699,37.72,87,100,7.65,GL,1691705152
124,balkanabat,39.5108,54.3671,92.37,25,0,5.75,TM,1691705153
125,ilulissat,69.2167,-51.1,44.62,81,75,4.61,GL,1691705153
126,kajaani,64.2273,27.7285,55.45,82,0,5.75,FI,1691705153
127,atoyac de alvarez,17.2,-100.4333,88.07,71,97,5.84,MX,1691705153
128,severo-yeniseyskiy,60.3725,93.0408,53.44,96,100,3.74,RU,1691705153
129,whitehorse,60.7161,-135.0538,67.1,50,75,8.05,CA,1691704969
130,hermanus,-34.4187,19.2345,60.46,59,0,2.73,ZA,1691705153
131,ruteng,-8.6136,120.4721,57.16,87,75,0.96,ID,1691705153
132,fort bragg,35.139,-79.006,89.15,62,72,10.92,US,1691705154
133,bubaque,11.2833,-15.8333,80.73,82,100,14.0,GW,1691705154
134,alindao,5.0267,21.2088,69.4,98,100,2.19,CF,1691705154
135,praia,14.9215,-23.5087,79.34,69,40,6.91,CV,1691705154
136,brisas barra de suchiate,14.55,-92.2167,93.38,72,69,10.04,MX,1691705154
137,nuevo ideal,24.8875,-105.0728,82.63,28,100,6.93,MX,1691705154
138,naze,28.3667,129.4833,74.32,86,100,5.17,JP,1691705155
139,bilibino,68.0546,166.4372,52.47,75,100,4.12,RU,1691705155
140,xai-xai,-25.0519,33.6442,62.01,70,23,6.2,MZ,1691705155
141,keflavik,64.0049,-22.5624,58.91,77,40,8.05,IS,1691705155
142,kankan,10.3854,-9.3057,72.23,96,100,6.44,GN,1691705155
143,ulsteinvik,62.3432,5.8487,55.76,89,100,8.99,NO,1691705155
144,baki,-7.6128,110.7839,66.79,90,48,5.73,ID,1691705155
145,lae,-6.7221,146.9847,72.27,94,96,2.42,PG,1691705155
146,klyuchi,52.2667,79.1667,62.13,93,99,11.43,RU,1691705156
147,vukovar,45.3433,18.9997,62.08,88,0,5.75,HR,1691705156
148,la'ie,21.6477,-157.9253,87.76,62,46,17.43,US,1691705156
149,sajir,25.1825,44.5996,91.58,14,7,6.46,SA,1691705156
150,port elizabeth,-33.918,25.5701,71.1,100,3,2.3,ZA,1691705156
151,acapulco de juarez,16.8634,-99.8901,89.42,62,40,9.22,MX,1691704976
152,machiques,10.0644,-72.545,92.95,55,56,9.04,VE,1691705156
153,papao,-17.75,-149.55,80.28,71,48,20.29,PF,1691705156
154,huedin,46.8667,23.05,57.81,74,84,3.53,RO,1691705157
155,hillsborough,37.5741,-122.3794,89.29,70,20,12.66,US,1691704633
156,inhambane,-23.865,35.3833,64.0,71,0,7.09,MZ,1691705157
157,margaret river,-33.95,115.0667,53.94,76,91,5.23,AU,1691705157
158,onguday,50.75,86.15,58.42,77,91,3.67,RU,1691705157
159,jiaozuo,35.2397,113.2331,77.76,83,81,2.44,CN,1691704881
160,sao sepe,-30.1606,-53.5653,66.43,93,61,4.85,BR,1691705157
161,puerto armuelles,8.2833,-82.8667,83.97,91,73,3.0,PA,1691705157
162,port mathurin,-19.6833,63.4167,73.17,79,51,21.36,MU,1691705157
163,kencong,-8.2833,113.3667,67.66,92,49,2.42,ID,1691705157
164,rapar,23.5667,70.6333,81.05,74,99,13.33,IN,1691705158
165,andong,36.5656,128.725,70.23,93,52,1.32,KR,1691705158
166,kingston,17.997,-76.7936,90.55,85,20,19.57,JM,1691705126
167,las palmas de gran canaria,28.0997,-15.4134,80.78,74,20,28.77,ES,1691705158
168,chonchi,-42.6128,-73.8092,45.12,85,98,7.92,CL,1691705158
169,changping,40.2186,116.2197,76.64,86,95,1.68,CN,1691705158
170,akrehamn,59.2667,5.1833,53.01,87,40,3.44,NO,1691705159
171,gornozavodsk,58.3758,58.3211,50.27,84,47,3.38,RU,1691705159
172,khandyga,62.6667,135.6,66.49,52,13,3.06,RU,1691705159
173,maxixe,-23.8597,35.3472,62.56,73,0,6.13,MZ,1691705159
174,ujae,8.9322,165.7642,82.49,72,5,9.17,MH,1691705159
175,pacific grove,36.6177,-121.9166,76.64,75,0,13.8,US,1691705159
176,zaozersk,69.4005,32.4476,63.12,71,0,9.15,RU,1691705159
177,benjamin constant,-4.3831,-70.0311,87.93,66,40,2.3,BR,1691705159
178,kourou,5.1552,-52.6478,84.25,83,19,6.62,GF,1691705160
179,ceres,37.5949,-120.9577,93.22,29,0,0.0,US,1691705160
180,bandiagara,14.3501,-3.6104,81.84,68,39,10.6,ML,1691705160
181,caxias,38.7031,-9.2767,75.0,74,0,13.8,PT,1691705160
182,pachino,36.7186,15.0907,75.52,63,0,2.37,IT,1691705160
183,namibe,-15.1961,12.1522,60.4,89,17,9.48,AO,1691705160
184,uturoa,-16.7333,-151.4333,77.23,67,79,16.42,PF,1691705161
185,st. john's,47.5649,-52.7093,69.28,88,75,10.36,CA,1691705161
186,tofol,5.3248,163.0078,83.19,72,95,5.46,FM,1691705161
187,arraial do cabo,-22.9661,-42.0278,71.56,83,0,13.8,BR,1691705161
188,itoman,26.1247,127.6694,80.62,94,75,2.3,JP,1691705161
189,hampton bays,40.869,-72.5176,72.9,96,75,8.99,US,1691705161
190,charters towers,-20.1,146.2667,61.2,78,2,9.51,AU,1691705161
191,al kharijah,25.4514,30.5464,87.58,23,0,10.22,EG,1691705162
192,suva,-18.1416,178.4415,71.08,88,75,4.61,FJ,1691705162
193,itamaraca,-7.7478,-34.8256,78.85,82,14,10.6,BR,1691705162
194,ar rutbah,33.0381,40.2848,89.49,17,0,7.47,IQ,1691705162
195,trevelin,-43.0858,-71.4639,42.28,87,32,10.27,AR,1691705162
196,kone,-21.0595,164.8658,66.7,51,0,6.35,NC,1691705163
197,revda,56.801,59.9303,52.88,80,27,3.31,RU,1691705163
198,revelstoke,50.9832,-118.2023,66.22,77,100,9.22,CA,1691705164
199,kyzylorda,44.8528,65.5092,66.22,63,0,6.71,KZ,1691705164
200,corinto,37.9407,22.9573,78.89,61,41,3.31,GR,1691705165
201,lashio,22.9333,97.75,69.04,100,100,1.48,MM,1691705165
202,lathen,52.8667,7.3167,63.91,82,80,1.14,DE,1691705165
203,tolanaro,-25.0319,46.9987,66.27,63,75,6.91,MG,1691705165
204,mzimba,-11.9,33.6,56.43,59,13,9.89,MW,1691705165
205,kribi,2.95,9.9167,75.96,90,93,6.31,CM,1691705165
206,dublin,37.7021,-121.9358,94.5,50,0,13.8,US,1691704685
207,kolonia,50.9333,6.95,66.96,78,0,1.14,DE,1691704995
208,lethem,3.3803,-59.7968,82.98,70,68,3.78,GY,1691705166
209,mogocha,53.7333,119.7667,60.89,79,100,1.5,RU,1691705166
210,ushuaia,-54.8,-68.3,35.26,93,75,4.61,AR,1691705166
211,nagqu,31.5,92.0,41.94,93,100,1.63,CN,1691705166
212,kabansk,52.0486,106.6528,57.58,95,69,6.04,RU,1691705167
213,el calafate,-50.3408,-72.2768,34.83,93,100,3.89,AR,1691705167
214,tokoroa,-38.2333,175.8667,39.94,88,15,4.72,NZ,1691705167
215,paphos,34.7667,32.4167,80.38,69,0,4.61,CY,1691705005
216,luderitz,-26.6481,15.1594,65.89,58,18,1.41,NA,1691705167
217,caleta de carquin,-11.0925,-77.6267,68.29,76,20,12.08,PE,1691705168
218,avarua,-21.2078,-159.775,77.05,73,100,14.97,CK,1691705168
219,ottawa,45.4112,-75.6981,65.75,97,75,6.91,CA,1691705143
220,yung shue wan,22.2333,114.1167,81.57,92,100,9.4,HK,1691705168
221,college,64.8569,-147.8028,71.2,80,75,0.0,US,1691705168
222,bredasdorp,-34.5322,20.0403,55.67,71,0,2.66,ZA,1691705168
223,masterton,-40.9597,175.6575,45.88,90,63,6.87,NZ,1691705169
224,antonio enes,-16.2325,39.9086,68.99,87,30,7.81,MZ,1691705169
225,vernon,50.2581,-119.2691,78.75,43,81,2.3,CA,1691705169
226,zemio,5.0314,25.1361,68.76,98,100,2.3,CF,1691705169
227,san julian,21.0167,-102.1667,73.72,53,79,10.38,MX,1691705169
228,maloye ganyushkino,46.6,49.2667,81.84,37,0,4.16,KZ,1691705170
229,necochea,-38.5473,-58.7368,56.5,98,100,7.87,AR,1691705170
230,baishishan,43.5833,127.5667,68.74,95,100,8.19,CN,1691705170
231,sciacca,37.5082,13.0881,74.03,56,0,3.13,IT,1691705170
232,rawson,-43.3002,-65.1023,60.53,35,77,10.69,AR,1691705171
233,mount gambier,-37.8333,140.7667,48.52,92,100,5.99,AU,1691705171
234,novyy urengoy,66.0833,76.6333,45.19,72,11,21.27,RU,1691705171
235,udachny,66.4167,112.4,61.45,82,88,4.85,RU,1691704932
236,fale old settlement,-9.3852,-171.2468,81.68,78,92,11.97,TK,1691705171
237,porto novo,6.4965,2.6036,78.62,87,27,6.71,BJ,1691705172
238,carnarvon,-24.8667,113.6333,64.49,83,23,3.02,AU,1691705172
239,al hoceima,35.2433,-3.9309,83.43,65,93,3.44,MA,1691705172
240,guiberoua,6.2392,-6.1727,70.38,99,100,2.51,CI,1691705172
241,prince george,53.9166,-122.753,71.26,42,75,14.97,CA,1691704998
242,n'zeto,-7.2312,12.8666,69.37,88,6,6.91,AO,1691705173
243,sikasso,10.9167,-7.0,72.77,98,100,5.68,ML,1691705173
244,tsiombe,-25.3,45.4833,62.11,73,16,9.93,MG,1691705173
245,al wafrah,28.6392,47.9306,90.61,42,10,4.81,KW,1691705173
246,howrah,22.5892,88.3103,80.6,89,75,6.91,IN,1691705173
247,punta arenas,-53.15,-70.9167,37.26,73,100,15.28,CL,1691705128
248,santa marta,11.2408,-74.199,87.89,77,75,9.22,CO,1691704929
249,corn island,12.1694,-83.0418,83.55,77,92,7.27,NI,1691705173
250,prince rupert,54.3161,-130.3201,62.69,85,100,17.27,CA,1691705174
251,dudinka,69.4058,86.1778,51.62,51,80,25.01,RU,1691705174
252,kapuskasing,49.4169,-82.4331,62.69,88,75,6.91,CA,1691705174
253,bridgewater,44.3835,-64.5155,76.68,63,89,13.8,CA,1691705026
254,barranca,-10.75,-77.7667,67.14,77,29,11.81,PE,1691705174
255,tsetserleg,47.475,101.4542,51.12,84,15,2.3,MN,1691705174
256,carolina beach,34.0352,-77.8936,89.65,79,78,15.82,US,1691705174
257,forbach,49.1833,6.9,63.36,81,0,4.61,FR,1691705174
258,barcelos,41.5388,-8.6151,70.92,90,6,2.33,PT,1691705175
259,palikir - national government center,6.9248,158.1611,84.94,79,100,3.44,FM,1691705175
260,teguise,29.0605,-13.564,75.42,73,0,18.41,ES,1691705175
261,weyburn,49.6668,-103.8511,79.02,36,85,13.8,CA,1691705175
262,berehomet,48.1788,25.3486,57.96,85,100,4.05,UA,1691705175
263,sisimiut,66.9395,-53.6735,45.63,90,100,9.01,GL,1691705175
264,rice lake,45.5061,-91.7382,80.28,50,0,6.91,US,1691705175
265,raton,36.9034,-104.4391,88.14,16,96,8.81,US,1691705176
266,birao,10.2849,22.7882,72.46,89,20,2.37,CF,1691705176
267,vordingborg,55.008,11.9106,55.98,69,18,13.38,DK,1691705176
268,rehoboth,-23.3167,17.0833,63.12,33,80,9.66,NA,1691705176
269,rio bueno,-40.3167,-72.9667,48.34,92,99,6.38,CL,1691705176
270,al jawf,29.5,38.75,86.67,25,3,12.41,SA,1691705177
271,newman,37.3138,-121.0208,95.05,16,20,11.56,US,1691705177
272,maracacume,-2.0428,-45.9592,78.94,77,82,2.82,BR,1691705006
273,callao,-12.0667,-77.15,70.09,73,100,11.5,PE,1691705177
274,sur,22.5667,59.5289,86.11,63,100,7.23,OM,1691705002
275,hotan,37.0997,79.9269,82.9,20,79,7.72,CN,1691705177
276,regina,50.4501,-104.6178,76.98,50,75,17.27,CA,1691705175
277,grantsville,40.5999,-112.4644,93.52,19,0,11.99,US,1691705177
278,aykhal,66.0,111.5,60.62,87,100,3.56,RU,1691705177
279,balikpapan,-1.2675,116.8289,81.59,83,40,9.22,ID,1691705055
280,suncho corral,-27.9336,-63.4294,76.86,35,34,2.73,AR,1691705178
281,payyannur,12.1,75.2,76.78,91,97,7.49,IN,1691705178
282,blagoveshchensk,50.2667,127.5333,63.21,100,75,2.24,RU,1691705178
283,limeira,-22.5647,-47.4017,75.85,39,0,0.63,BR,1691705178
284,san pedro pochutla,15.7333,-96.4667,90.72,64,84,7.36,MX,1691705178
285,rampur hat,24.1667,87.7833,83.44,78,100,3.4,IN,1691705179
286,alofi,-19.0595,-169.9187,82.29,78,40,6.91,NU,1691705179
287,concepcion de la sierra,-27.9831,-55.5203,71.28,94,91,3.69,AR,1691705179
288,port lincoln,-34.7333,135.8667,48.6,80,24,5.99,AU,1691705179
289,gemena,3.25,19.7667,70.74,98,87,2.73,CD,1691705179
290,kyaikkami,16.08,97.5675,79.18,85,100,7.47,MM,1691705179
291,salalah,17.0151,54.0924,76.35,93,87,4.65,OM,1691705179
292,san antonio de pale,-1.4014,5.6325,74.55,87,69,10.29,GQ,1691705179
293,tralee,52.2704,-9.7026,57.52,96,22,5.66,IE,1691705180
294,east london,-33.0153,27.9116,65.16,70,0,13.18,ZA,1691705180
295,weno,7.4515,151.8468,81.45,75,62,4.99,FM,1691705180
296,chui,-33.6971,-53.4616,61.9,90,100,6.13,UY,1691705180
297,jianshui,23.6363,102.8264,66.76,97,80,2.17,CN,1691705180
298,beni saf,35.301,-1.3823,89.89,57,0,2.35,DZ,1691705180
299,cova figueira,14.8905,-24.2934,73.81,76,19,9.84,CV,1691705180
300,fort st. john,56.2499,-120.8529,60.69,82,75,6.91,CA,1691704896
301,berezovyy,51.6667,135.7,64.63,67,13,1.07,RU,1691705181
302,dunda,-8.1167,34.25,61.48,57,34,4.79,TZ,1691705181
303,lagoa,39.05,-27.9833,72.82,65,72,7.07,PT,1691705181
304,ciudad lazaro cardenas,17.9583,-102.2,88.3,63,63,9.33,MX,1691704956
305,berdigestyakh,62.0989,126.6992,60.96,75,0,7.94,RU,1691705181
306,shatrovo,56.5167,64.6333,57.92,66,98,9.17,RU,1691705181
307,kiunga,-6.1219,141.2906,72.03,87,95,3.51,PG,1691705181
308,porto murtinho,-21.6989,-57.8825,93.97,22,0,8.19,BR,1691705181
309,olean,42.0776,-78.4297,77.68,52,40,11.5,US,1691705182
310,ouallam,14.3188,2.0866,84.61,64,90,17.81,NE,1691705182
311,buzuluk,52.7807,52.2635,68.32,52,0,5.06,RU,1691705182
312,amga,60.8953,131.9608,61.25,92,6,3.04,RU,1691705182
313,ust-nera,64.5667,143.2,68.27,44,9,1.61,RU,1691705182
314,yulinshi,38.2906,109.7494,73.36,84,99,3.51,CN,1691705182
315,ghanzi,-21.5667,21.7833,54.86,39,2,8.66,BW,1691705182
316,mahibadhoo,3.7833,72.9667,82.09,78,100,13.6,MV,1691704921
317,lionel town,17.8101,-77.2406,91.29,67,22,9.4,JM,1691705183
318,walvis bay,-22.9575,14.5053,56.35,94,60,6.91,NA,1691705167
319,quellon,-43.1167,-73.6167,46.65,76,75,19.57,CL,1691704910
320,tchintabaraden,15.8969,5.7985,76.15,80,100,21.9,NE,1691705183
321,puerto deseado,-47.7503,-65.8938,50.5,62,58,9.82,AR,1691705183
322,tabas,33.5959,56.9244,91.62,15,0,9.22,IR,1691705183
323,ciudad real,39.0,-4.0,86.11,14,4,5.99,ES,1691705184
324,anloga,5.7947,0.8973,76.53,87,10,11.81,GH,1691705184
325,pimentel,-6.8367,-79.9342,75.49,69,100,18.41,PE,1691705184
326,el granada,37.5027,-122.4694,90.91,71,100,11.5,US,1691705184
327,greymouth,-42.4667,171.2,36.63,84,85,5.99,NZ,1691705184
328,kapa'a,22.0752,-159.319,88.12,68,0,17.27,US,1691705184
329,bamboo flat,11.7,92.7167,82.49,83,75,4.61,IN,1691705184
330,villagarzon,1.0375,-76.6267,84.06,83,54,1.57,CO,1691705184
331,springs,-26.25,28.4,51.67,75,0,8.08,ZA,1691705185
332,alma,48.5501,-71.6491,66.33,90,91,6.04,CA,1691705166
333,nakonde,-9.3421,32.745,52.29,82,0,7.92,ZM,1691705185
334,dwarka,22.2394,68.9678,80.87,82,99,17.63,IN,1691705185
335,rameswaram,9.2833,79.3,81.36,85,42,13.67,IN,1691705185
336,stara vyzhivka,51.4376,24.44,60.19,83,94,5.97,UA,1691705185
337,sao joao do paraiso,-15.3136,-42.0144,67.78,45,100,7.34,BR,1691705185
338,beau vallon,-20.4189,57.6953,68.22,94,40,3.44,MU,1691705186
339,mata-utu,-13.2816,-176.1745,82.78,73,88,11.5,WF,1691705186
340,al wajh,26.2455,36.4525,85.95,74,0,5.75,SA,1691704904
341,yasuj,30.6682,51.588,78.35,15,0,0.0,IR,1691705186
342,la peca,-5.6111,-78.435,82.92,50,62,4.54,PE,1691705186
343,bandon,51.7469,-8.7425,58.59,98,52,6.64,IE,1691705177
344,nadym,65.5333,72.5167,41.29,86,0,20.76,RU,1691704998
345,as sulayyil,20.4607,45.5779,89.85,10,65,1.59,SA,1691705187
346,latakia,35.5148,35.7768,77.18,76,37,4.99,SY,1691705187
347,antalaha,-14.9003,50.2788,65.97,92,9,6.08,MG,1691705187
348,hamilton,39.1834,-84.5333,83.77,63,0,12.66,US,1691705187
349,puerto baquerizo moreno,-0.9,-89.6,77.99,83,75,13.8,EC,1691705187
350,auki,-8.7676,160.7034,76.64,89,99,9.69,SB,1691705187
351,grand falls-windsor,48.9332,-55.6649,59.5,94,100,1.99,CA,1691705095
352,antofagasta,-23.65,-70.4,63.68,74,44,6.35,CL,1691705188
353,zhanibek,49.4167,46.85,77.34,34,60,9.1,KZ,1691705188
354,kaohsiung,22.6163,120.3133,79.03,96,75,9.22,TW,1691704891
355,tulun,54.5611,100.5792,53.64,93,4,3.24,RU,1691705188
356,priozersk,61.0393,30.1291,62.1,100,88,4.7,RU,1691705188
357,addiet canna,11.2667,37.4833,57.33,87,100,3.85,ET,1691705188
358,khilok,51.3674,110.4676,56.44,97,100,5.66,RU,1691705188
359,pontalina,-17.525,-49.4472,79.92,28,0,5.1,BR,1691705178
360,la ronge,55.1001,-105.2842,55.65,94,100,16.11,CA,1691705189
361,kokoda,-8.8785,147.7407,73.71,88,95,0.63,PG,1691705189
362,zarand,30.8127,56.564,74.57,18,0,5.99,IR,1691705189
363,ouani,-12.1322,44.4258,75.58,77,23,11.83,KM,1691705189
364,castillos,-34.1667,-53.8333,58.06,96,100,5.26,UY,1691705189
365,kruisfontein,-34.0033,24.7314,68.88,29,1,13.13,ZA,1691705189
366,alaghsas,17.0187,8.0168,86.5,48,98,5.64,NE,1691705189
367,santa terezinha,-29.9002,-50.0904,64.49,95,19,9.69,BR,1691705190
368,ariquemes,-9.9133,-63.0408,89.53,39,90,2.44,BR,1691705190
369,nar'yan-mar,67.6713,53.087,50.81,81,16,4.94,RU,1691705190
370,haiku-pauwela,20.9219,-156.3051,83.25,73,40,23.02,US,1691705190
371,faya-largeau,17.9257,19.1043,92.52,43,89,12.5,TD,1691705190
372,quillacollo,-17.4,-66.2833,84.27,10,20,4.0,BO,1691705191
373,bardai,11.65,7.2333,71.33,91,100,6.4,NG,1691705191
374,bage,-31.3314,-54.1069,60.58,94,0,6.91,BR,1691705191
375,taltal,-25.4,-70.4833,65.62,64,32,5.7,CL,1691704895
376,labytnangi,66.6572,66.4183,46.51,87,2,4.38,RU,1691705191
377,kegen,43.0197,79.2203,56.73,53,99,4.21,KZ,1691705192
378,afaahiti,-17.75,-149.2833,78.67,69,60,17.76,PF,1691705192
379,wagar,16.1525,36.2032,80.31,68,100,12.82,SD,1691705192
380,deir ez-zor,35.3359,40.1408,92.86,31,0,14.76,SY,1691705192
381,eldorado at santa fe,35.5264,-105.9347,90.01,26,75,7.0,US,1691705192
382,prado,-17.3411,-39.2208,71.6,79,75,7.27,BR,1691705192
383,kaa-khem,51.6833,94.7333,58.71,71,12,6.22,RU,1691705192
384,shwebo,22.5667,95.7,75.56,91,100,7.09,MM,1691705193
385,paradise point,-27.8863,153.3957,63.0,74,0,1.01,AU,1691705193
386,refahiye,39.9008,38.7667,69.44,36,0,1.43,TR,1691705193
387,ulladulla,-35.35,150.4667,48.65,60,0,4.32,AU,1691705193
388,baharly,38.4362,57.4316,90.19,22,0,4.79,TM,1691705194
389,kidal,18.4411,1.4078,85.68,45,55,10.58,ML,1691705194
390,kismayo,-0.3582,42.5454,75.34,84,44,15.79,SO,1691705194
391,salinopolis,-0.6136,-47.3561,79.41,78,60,11.25,BR,1691705125
392,fortuna,40.5982,-124.1573,72.93,76,40,11.5,US,1691705194
393,bambanglipuro,-7.95,110.2833,68.29,95,47,2.8,ID,1691705194
394,gumushacikoy,40.8731,35.2147,68.32,95,16,3.44,TR,1691705194
395,mochudi,-24.4167,26.15,57.79,54,61,10.6,BW,1691705194
396,rongelap,11.1635,166.8941,82.83,74,38,12.28,MH,1691705195
397,riscani,47.9572,27.5539,63.01,46,48,4.94,MD,1691705195
398,pervomayskoye,43.919,46.7102,79.99,63,2,16.73,RU,1691705195
399,trairi,-3.2778,-39.2689,77.68,83,9,11.5,BR,1691705195
400,concepcion,-36.827,-73.0498,55.2,71,75,13.8,CL,1691704957
401,carutapera,-1.195,-46.02,78.58,83,60,9.55,BR,1691705196
402,lompoc,34.6391,-120.4579,81.01,77,100,4.61,US,1691705196
403,codajas,-3.8367,-62.0569,84.24,54,90,0.92,BR,1691705196
404,limuru,-1.1,36.65,55.13,84,77,4.54,KE,1691705196
405,katsina,12.9894,7.6006,77.63,71,100,5.57,NG,1691705026
406,punta del este,-34.9667,-54.95,62.96,91,100,4.61,UY,1691705113
407,belley,45.8333,5.6667,73.83,77,49,1.86,FR,1691705196
408,kalmunai,7.4167,81.8167,79.36,81,92,6.46,LK,1691705196
409,kuala belait,4.5833,114.1833,77.16,91,95,5.64,BN,1691705196
410,singida,-4.8167,34.75,64.17,59,75,11.97,TZ,1691705197
411,belmonte,-15.8631,-38.8828,72.54,79,45,6.89,BR,1691705197
412,tamanrasset,22.785,5.5228,80.51,11,0,3.44,DZ,1691705197
413,kangundo,-1.2979,37.3471,62.94,75,59,5.06,KE,1691705197
414,lospalos,-8.5186,127.0025,66.92,90,10,5.77,TL,1691705197
415,shevchenko,48.5,35.0,67.75,92,95,5.61,UA,1691705197
416,sinjai,-5.1241,120.253,71.83,91,45,3.87,ID,1691705197
417,tateyama,34.9833,139.8667,80.13,84,0,9.6,JP,1691705198
418,sibay,52.7181,58.6658,57.87,93,38,9.19,RU,1691705198
419,chifeng,42.2683,118.9636,65.12,77,39,2.19,CN,1691705198
420,sabang,5.8933,95.3214,81.99,79,85,13.35,ID,1691705198
421,ola,59.5833,151.2833,57.2,69,17,1.5,RU,1691705198
422,north battleford,52.7834,-108.2847,71.69,53,75,9.22,CA,1691705198
423,bandar-e lengeh,26.5579,54.8807,93.31,75,69,0.0,IR,1691705198
424,sabzevar,36.2126,57.6819,80.22,22,0,12.84,IR,1691705198
425,saudarkrokur,65.7461,-19.6394,44.26,91,94,8.21,IS,1691705199
426,tazovsky,67.4667,78.7,41.56,66,1,20.47,RU,1691705199
427,mason city,43.1536,-93.201,87.57,52,20,8.05,US,1691704365
428,inderbor,48.55,51.7833,79.3,30,0,8.34,KZ,1691705199
429,south portland,43.6415,-70.2409,79.65,74,0,9.22,US,1691705199
430,ust'-ordynskiy,52.805,104.7508,54.99,95,55,3.85,RU,1691705199
431,brandon,27.9378,-82.2859,95.88,69,40,10.36,US,1691705200
432,den burg,53.0542,4.7972,63.0,71,0,5.75,NL,1691705200
433,el burgo de osma,41.5862,-3.0652,68.54,42,31,5.61,ES,1691705200
434,ta`u,-14.2336,-169.5144,81.61,72,100,14.47,AS,1691705200
435,tadmur,34.5608,38.2805,82.99,46,0,8.88,SY,1691705000
436,motupe,-6.1519,-79.7142,75.42,53,44,10.98,PE,1691705200
437,cascais,38.6979,-9.4215,75.02,75,0,17.0,PT,1691705200
438,benguela,-12.5763,13.4055,68.31,82,94,3.11,AO,1691705200
439,tanakpur,29.0833,80.1167,78.44,91,55,2.53,IN,1691705066
440,rabo de peixe,37.8,-25.5833,72.91,83,40,8.05,PT,1691705200
441,ishigaki,24.3448,124.1572,82.67,80,100,7.38,JP,1691705201
442,kharan,28.5833,65.4167,88.77,16,1,5.95,PK,1691705201
443,chadron,42.8294,-102.9999,87.48,32,0,3.0,US,1691705201
444,trujillo,-8.116,-79.03,69.76,88,75,10.36,PE,1691705201
445,semikarakorsk,47.5194,40.8112,79.07,49,100,8.34,RU,1691705201
446,guelmim,28.987,-10.0574,94.26,17,29,1.23,MA,1691705201
447,kovdor,67.5662,30.4758,58.08,96,24,3.0,RU,1691705201
448,midvagur,62.0511,-7.1939,52.63,93,100,11.5,FO,1691705202
449,bochum,51.4833,7.2167,64.69,71,0,7.0,DE,1691705202
450,saguenay,48.4168,-71.0657,66.07,81,100,12.66,CA,1691705202
451,urangan,-25.3,152.9,62.4,73,0,7.92,AU,1691704960
452,bantay,17.5847,120.3892,78.66,87,100,7.09,PH,1691705202
453,ingeniero jacobacci,-41.3427,-69.5448,42.48,68,3,23.73,AR,1691705202
454,vakarai,55.6035,23.8213,55.92,75,100,2.35,LT,1691705202
455,dunedin,-45.8742,170.5036,39.79,77,100,1.01,NZ,1691705203
456,chernyshevskiy,63.0128,112.4714,60.89,80,100,4.07,RU,1691705203
457,deshnoke,27.8,73.35,85.21,61,91,19.62,IN,1691705203
458,bhainsdehi,21.6467,77.6325,70.38,90,20,4.47,IN,1691705203
459,diekirch,49.8678,6.1558,63.27,73,13,1.3,LU,1691705203
460,sohagpur,22.7,78.2,74.32,88,67,5.08,IN,1691705203
461,dubbo,-32.25,148.6167,35.73,93,0,0.0,AU,1691704985
462,xiahu,26.6106,119.9483,79.75,84,98,5.57,CN,1691705203
463,vila velha,-20.3297,-40.2925,73.35,78,100,5.75,BR,1691705001
464,port douglas,-16.4833,145.4667,71.01,77,80,13.6,AU,1691705204
465,sile,41.1754,29.6133,75.87,72,98,6.4,TR,1691705204
466,frutal,-20.0247,-48.9406,81.25,28,0,6.13,BR,1691705204
467,crane,31.3974,-102.3501,107.44,12,4,6.87,US,1691705204
468,usinsk,65.9939,57.5281,52.7,77,2,8.1,RU,1691705204
469,namalenga,-10.95,39.1,66.15,77,48,4.25,TZ,1691705204
470,saskatoon,52.1168,-106.6345,79.16,32,83,10.0,CA,1691705204
471,cooma,-36.2333,149.1333,34.38,83,1,2.08,AU,1691705204
472,formosa,-26.1775,-58.1781,81.97,71,39,1.01,AR,1691705205
473,new plymouth,-39.0667,174.0833,47.32,59,2,3.22,NZ,1691705076
474,tura,25.5198,90.2201,74.79,98,100,4.7,IN,1691705205
475,salinera colan,-5.0333,-81.0667,75.15,71,14,17.05,PE,1691705205
476,pak phanang,8.3511,100.202,78.42,82,80,6.24,TH,1691705205
477,rio grande,-32.035,-52.0986,63.95,96,91,10.27,BR,1691705205
478,guingamp,48.4167,-3.3333,66.13,95,47,7.23,FR,1691705205
479,aras-asan,8.8908,126.3033,77.5,87,87,5.64,PH,1691705205
480,hami,42.8,93.45,81.55,24,0,8.68,CN,1691705205
481,can-avid,11.9953,125.4472,78.76,88,99,7.14,PH,1691705205
482,kushchevskaya,46.5564,39.6386,78.13,62,95,8.79,RU,1691705206
483,cuyo,10.8525,121.0086,82.4,80,100,10.83,PH,1691705206
484,port sudan,19.6175,37.2164,94.15,38,3,3.71,SD,1691705206
485,selfoss,63.9331,-20.9971,57.04,81,64,8.77,IS,1691705206
486,hepingjie,42.0597,126.9158,64.49,98,99,4.5,CN,1691705207
487,kerikeri,-35.2268,173.9474,50.92,89,26,1.99,NZ,1691705207
488,zarah sharan,33.1467,68.7917,73.47,47,8,3.87,AF,1691705207
489,andergrove,-21.0833,149.1833,63.64,71,33,5.39,AU,1691705207
490,hammerfest,70.6634,23.6821,72.05,64,40,10.36,NO,1691705207
491,jaithari,23.2333,78.6167,75.31,85,63,4.72,IN,1691705207
492,pirapora,-17.345,-44.9419,75.99,33,0,2.01,BR,1691705208
493,egilsstadir,65.2653,-14.3948,49.44,84,6,3.11,IS,1691705208
494,myeik,12.4333,98.6,78.64,90,33,7.2,MM,1691705208
495,potchefstroom,-26.7167,27.1,50.32,52,12,6.71,ZA,1691705122
496,tual,-5.6667,132.75,78.08,80,64,20.2,ID,1691705208
497,kirakira,-10.4544,161.9205,76.82,84,87,15.1,SB,1691705208
498,were ilu,10.6,39.4333,53.51,78,100,3.96,ET,1691705208
499,villa emilio carranza,19.9667,-96.6,89.29,69,3,15.7,MX,1691705208
500,tashtyp,52.7939,89.8983,59.92,66,99,2.73,RU,1691705208
501,ibiza,38.9088,1.433,81.21,88,0,3.0,ES,1691704929
502,arauco,-37.2463,-73.3175,48.45,87,38,7.09,CL,1691705209
503,sorong,-0.8833,131.25,75.6,87,86,12.26,ID,1691705209
504,ceylanpinar,36.8472,40.05,91.49,31,0,10.27,TR,1691705209
505,patacamaya,-17.2333,-67.9167,55.99,16,0,6.38,BO,1691705209
506,sarikei,2.1167,111.5167,75.09,99,90,2.17,MY,1691704933
507,nova sintra,14.8667,-24.7167,73.2,74,22,13.94,CV,1691705210
508,cole harbour,44.6724,-63.4751,75.92,66,68,7.0,CA,1691705210
509,yeppoon,-23.1333,150.7333,53.38,68,0,0.98,AU,1691705210
510,puerto san jose,13.9256,-90.8244,86.65,72,86,10.58,GT,1691705210
511,yuzhno-kurilsk,44.0306,145.8556,69.28,94,100,12.91,RU,1691705210
512,koulikoro,14.0,-7.75,80.31,70,99,6.31,ML,1691705210
513,codrington,-38.2667,141.9667,49.28,86,100,10.74,AU,1691705210
514,dharchula,29.85,80.5333,73.13,92,100,1.81,IN,1691705210
515,bereznik,62.8551,42.7072,63.25,85,7,1.72,RU,1691705211
516,alamosa,37.4695,-105.87,80.58,19,40,0.0,US,1691705212
517,coahuayana de hidalgo,18.7,-103.6583,87.33,70,95,5.64,MX,1691705212
518,atmore,31.0238,-87.4939,98.89,62,34,14.09,US,1691704977
519,holualoa,19.6228,-155.9522,79.56,75,75,5.75,US,1691705212
520,christchurch,-43.5333,172.6333,41.41,88,99,1.99,NZ,1691705212
521,borodulikha,50.7184,80.9295,62.58,92,88,8.43,KZ,1691705212
522,mana,5.6592,-53.7767,79.61,84,58,10.0,GF,1691705185
523,sinop,41.7711,34.8709,64.94,94,49,0.43,TR,1691705212
524,lerwick,60.1545,-1.1494,57.2,90,7,8.21,GB,1691705213
525,thomaston,32.8882,-84.3266,91.18,50,0,11.5,US,1691705213
526,bonthe,7.5264,-12.505,77.0,84,100,10.07,SL,1691705213
527,hilo,19.7297,-155.09,88.29,90,100,1.99,US,1691705213
528,westport,41.1415,-73.3579,73.74,88,75,6.91,US,1691704981
529,queenstown,-31.8976,26.8753,53.71,50,0,6.04,ZA,1691705213
530,kailua-kona,19.6406,-155.9956,83.28,80,10,1.01,US,1691704936
531,champerico,14.3,-91.9167,86.63,72,75,11.39,GT,1691705214
532,touros,-5.1989,-35.4608,76.71,81,47,15.46,BR,1691705214
533,leava,-14.3,-178.1667,81.91,77,95,10.71,WF,1691705214
534,konosha,60.9736,40.257,63.07,82,44,4.23,RU,1691705214
535,bandarbeyla,9.4942,50.8122,74.7,85,26,27.98,SO,1691705214
536,colon,9.3592,-79.9014,81.81,86,100,5.91,PA,1691705214
537,karaisali,37.2567,35.0589,79.97,85,0,1.95,TR,1691705214
538,coruche,38.9595,-8.5252,68.58,82,0,7.14,PT,1691705215
539,adygeysk,44.88,39.19,78.76,65,0,6.71,RU,1691705215
540,oltinko'l,40.8011,72.1634,79.59,32,6,5.3,UZ,1691705215
541,george town,5.4112,100.3354,78.73,92,20,3.44,MY,1691705141
542,constitucion,-35.3333,-72.4167,51.4,87,99,4.88,CL,1691705215
543,al burayqah,30.4062,19.5739,79.05,62,0,17.02,LY,1691705215
544,hasaki,35.7333,140.8333,81.28,86,15,11.56,JP,1691705215
545,great falls,47.5002,-111.3008,79.99,26,20,19.57,US,1691705216
546,tadine,-21.55,167.8833,67.44,52,0,17.6,NC,1691705216
547,olovyannaya,50.95,115.5667,60.62,95,100,3.06,RU,1691705216
548,howard springs,-12.497,131.047,71.51,68,90,6.35,AU,1691705216
549,saldanha,-33.0117,17.9442,53.65,72,0,6.2,ZA,1691705122
550,marine corps base hawaii - mcbh,21.4453,-157.7513,87.76,62,75,14.97,US,1691705216
551,kavaratti,10.5669,72.642,82.08,77,94,17.43,IN,1691705216
552,lazaro cardenas,17.9583,-102.2,88.3,63,63,9.33,MX,1691705208
553,port alberni,49.2413,-124.8028,72.93,64,69,7.0,CA,1691705031
554,vidyayevo,69.3191,32.8049,63.63,72,0,10.65,RU,1691705216
555,toliara,-23.35,43.6667,64.26,67,0,14.83,MG,1691705217
556,pingliang,35.5392,106.6861,70.32,87,69,6.89,CN,1691705217
557,portland,45.5234,-122.6762,84.16,42,20,11.5,US,1691705098
558,fayroz koh,34.5195,65.2509,58.15,49,4,3.09,AF,1691705217
559,strathmore,51.0501,-113.3852,75.87,44,41,5.32,CA,1691705217
560,nykobing falster,54.7691,11.8743,56.1,79,11,8.23,DK,1691705217
561,letterkenny,54.95,-7.7333,63.77,97,94,10.49,IE,1691705217
562,ribas do rio pardo,-20.4431,-53.7592,83.84,22,0,2.46,BR,1691705217
563,noumea,-22.2763,166.4572,70.0,98,5,10.07,NC,1691705218
564,mandan,46.8267,-100.8896,83.37,59,0,12.66,US,1691705218
565,anaconda,46.1285,-112.9423,76.19,27,5,15.37,US,1691705218
566,maues,-3.3836,-57.7186,82.15,61,85,2.64,BR,1691705218
567,videira,-27.0083,-51.1517,61.0,98,64,3.69,BR,1691705076
568,mersa matruh,31.3525,27.2453,78.94,66,0,8.66,EG,1691705218
569,carqueiranne,43.0953,6.073,72.07,83,0,0.0,FR,1691705218
570,mutum biyu,8.6333,10.7667,74.5,91,100,2.8,NG,1691705218
571,torun,53.0137,18.5981,59.63,95,81,3.51,PL,1691705218
572,miranda de ebro,42.6865,-2.947,66.99,83,17,2.66,ES,1691705219
573,mari-turek,56.7895,49.6235,64.87,75,7,3.65,RU,1691705219
574,kristiansund,63.1115,7.732,52.45,87,100,2.3,NO,1691705219
575,nouadhibou,20.931,-17.0347,71.58,88,40,20.71,MR,1691705219
576,taksimo,56.3444,114.8794,60.42,98,100,2.33,RU,1691705219
577,mikkeli,61.6886,27.2723,60.15,94,0,4.61,FI,1691705219
578,argo,37.6333,22.7333,78.78,69,66,0.85,GR,1691705220
579,gilgit,35.9221,74.3087,82.27,55,42,0.47,PK,1691705220
580,skidel',53.5904,24.2478,56.82,81,70,0.4,BY,1691705220
581,lautoka,-17.6167,177.4667,69.66,88,100,5.75,FJ,1691705220
582,tanout,14.9709,8.8879,83.12,56,54,9.93,NE,1691705220
583,leninskiy,54.2781,37.4558,62.38,73,93,7.63,RU,1691705220
584,gelemso,8.8167,40.5167,62.4,80,81,6.33,ET,1691705220
585,erwin,36.1451,-82.4168,79.14,88,87,7.02,US,1691705221
586,kinkala,-4.3614,14.7644,74.98,63,38,3.96,CG,1691705221
