City_ID,City,Lat,Lng,Max Temp,Humidity,Cloudiness,Wind Speed,Country,Date
0,kingston,17.997,-76.7936,94.24,65,15,11.01,JM,1691262820
1,kailua-kona,19.6406,-155.9956,81.5,74,40,8.05,US,1691263304
2,waitangi,-43.9535,-176.5597,48.25,59,100,33.35,NZ,1691263304
3,wolsztyn,52.1155,16.1171,62.22,97,100,4.72,PL,1691263304
4,hawaiian paradise park,19.5933,-154.9731,77.9,91,100,4.61,US,1691263305
5,blackmans bay,-43.0167,147.3167,47.52,86,93,6.24,AU,1691263244
6,carnarvon,-24.8667,113.6333,65.71,80,2,7.74,AU,1691263305
7,fale old settlement,-9.3852,-171.2468,82.49,77,33,14.12,TK,1691263305
8,isangel,-19.55,169.2667,69.91,94,75,0.0,VU,1691263305
9,ribeira grande,38.5167,-28.7,74.77,78,75,6.91,PT,1691263305
10,vilyuchinsk,52.9306,158.4028,55.67,87,0,8.08,RU,1691263235
11,upper coomera,-27.9,153.3,59.52,93,16,3.0,AU,1691263305
12,college,64.8569,-147.8028,73.08,59,40,0.0,US,1691263305
13,porto novo,6.4965,2.6036,78.62,86,27,8.81,BJ,1691263256
14,kodiak,57.79,-152.4072,53.11,94,100,6.91,US,1691263306
15,sitka,57.0531,-135.33,69.69,64,40,3.44,US,1691263306
16,port-aux-francais,-49.35,70.2167,36.36,72,97,31.27,TF,1691263306
17,kem',64.9555,34.5793,61.03,95,18,8.81,RU,1691263306
18,new norfolk,-42.7826,147.0587,48.7,86,100,2.95,AU,1691263306
19,naze,28.3667,129.4833,77.92,92,97,16.93,JP,1691263293
20,bethel,41.3712,-73.414,84.02,58,0,8.05,US,1691263010
21,adamstown,-25.066,-130.1015,66.43,63,9,14.14,PN,1691263306
22,saipan,15.1355,145.701,81.64,100,0,1.01,MP,1691263306
23,port mathurin,-19.6833,63.4167,73.17,74,56,26.22,MU,1691263228
24,weno,7.4515,151.8468,76.95,94,100,4.61,FM,1691263307
25,crane,31.3974,-102.3501,100.47,20,0,15.68,US,1691263307
26,matthew town,20.95,-73.6667,86.92,71,25,14.58,BS,1691263307
27,bousso,10.4795,16.7117,73.81,93,100,4.32,TD,1691263307
28,usogorsk,63.4106,48.6872,61.75,94,32,5.03,RU,1691263307
29,mazatlan,23.2167,-106.4167,90.01,77,100,3.0,MX,1691263203
30,olonkinbyen,70.9221,-8.7187,39.06,92,100,22.48,SJ,1691263307
31,jiujiang,29.7333,115.9833,85.95,79,3,1.61,CN,1691263307
32,pader palwo,2.8006,33.135,65.53,93,32,2.59,UG,1691263307
33,edinburgh of the seven seas,-37.0676,-12.3116,56.21,80,8,37.02,SH,1691263308
34,grytviken,-54.2811,-36.5092,22.55,83,100,11.86,GS,1691263308
35,kerikeri,-35.2268,173.9474,46.9,93,38,2.89,NZ,1691263308
36,hamilton,39.1834,-84.5333,84.99,63,20,10.36,US,1691263308
37,whitehorse,60.7161,-135.0538,70.57,42,40,9.22,CA,1691263213
38,puerto aysen,-45.4,-72.7,43.43,93,99,4.79,CL,1691263031
39,namibe,-15.1961,12.1522,65.1,85,0,3.69,AO,1691263308
40,margaret river,-33.95,115.0667,47.52,80,100,3.29,AU,1691263229
41,dingcheng,32.1272,115.0394,83.43,85,99,4.36,CN,1691263308
42,cedeira,43.6797,-8.0209,65.26,82,92,12.39,ES,1691263309
43,puerto ayora,-0.7393,-90.3518,84.16,90,36,13.0,EC,1691263309
44,yantarnyy,54.8717,19.9381,66.06,88,100,8.81,RU,1691263309
45,wailua homesteads,22.0669,-159.378,81.39,78,20,12.66,US,1691263309
46,tura,25.5198,90.2201,75.27,98,100,3.94,IN,1691263309
47,bredasdorp,-34.5322,20.0403,49.75,92,100,3.42,ZA,1691263309
48,salekhard,66.53,66.6019,66.09,57,0,7.52,RU,1691263309
49,atafu village,-8.5421,-172.5159,82.33,77,20,12.19,TK,1691263309
50,waddan,29.1614,16.139,85.57,60,0,23.96,LY,1691263309
51,yellowknife,62.456,-114.3525,68.56,42,75,8.05,CA,1691263233
52,oltinko'l,40.8011,72.1634,84.76,20,8,4.76,UZ,1691263310
53,savannah,32.0835,-81.0998,89.67,59,40,10.36,US,1691263061
54,georgetown,5.4112,100.3354,80.53,95,20,3.44,MY,1691263207
55,holyhead,53.3062,-4.6321,59.0,77,75,9.22,GB,1691263310
56,totness,5.8833,-56.3167,84.94,67,29,10.27,SR,1691263310
57,sorong,-0.8833,131.25,76.6,88,100,12.21,ID,1691263310
58,puerto natales,-51.7236,-72.4875,41.7,86,100,22.73,CL,1691263310
59,ibaan,13.8176,121.133,80.8,88,89,9.13,PH,1691263310
60,sao vicente,-23.9631,-46.3919,87.98,41,0,4.61,BR,1691263138
61,puerto gaitan,4.3133,-72.0816,84.36,68,100,10.0,CO,1691263311
62,west island,-12.1568,96.8225,76.98,88,75,17.27,CC,1691263190
63,korla,41.7597,86.1469,86.45,19,54,8.59,CN,1691263311
64,anadyr,64.75,177.4833,52.3,87,75,20.13,RU,1691263311
65,isafjordur,66.0755,-23.124,54.43,63,88,2.82,IS,1691263311
66,coruripe,-10.1256,-36.1756,76.73,80,50,8.41,BR,1691263311
67,carutapera,-1.195,-46.02,84.61,68,56,10.2,BR,1691263311
68,thompson,55.7435,-97.8558,69.96,68,75,6.91,CA,1691263311
69,al kharijah,25.4514,30.5464,94.06,12,4,9.95,EG,1691263311
70,tiksi,71.6872,128.8694,35.08,83,97,7.76,RU,1691263195
71,kudahuvadhoo,2.6708,72.8944,82.67,77,100,10.87,MV,1691263312
72,port isabel,26.0734,-97.2086,98.69,52,20,17.27,US,1691263047
73,jieshi,22.8134,115.8257,85.1,80,100,17.69,CN,1691263312
74,iqaluit,63.7506,-68.5145,55.13,76,20,5.01,CA,1691263312
75,kulmbach,50.1,11.45,63.97,92,100,3.91,DE,1691263312
76,horta,38.5333,-28.6333,74.01,79,75,6.91,PT,1691263312
77,tchintabaraden,15.8969,5.7985,81.68,56,100,1.23,NE,1691263312
78,roleystone,-32.1167,116.0667,51.37,88,100,3.44,AU,1691263312
79,ilulissat,69.2167,-51.1,50.02,57,20,4.61,GL,1691263313
80,odienne,9.51,-7.5692,77.09,84,23,3.49,CI,1691263313
81,ust-nera,64.5667,143.2,55.38,68,100,5.06,RU,1691263313
82,cabo san lucas,22.8909,-109.9124,95.61,66,40,13.8,MX,1691263270
83,leava,-14.3,-178.1667,80.26,83,72,9.75,WF,1691263313
84,rikaze,29.25,88.8833,53.8,82,100,1.25,CN,1691263313
85,talnakh,69.4865,88.3972,56.21,52,0,0.81,RU,1691263313
86,ekibastuz,51.6667,75.3667,68.59,82,100,5.68,KZ,1691263313
87,dudinka,69.4058,86.1778,56.62,61,1,5.57,RU,1691263313
88,zvezdnyy,57.7325,56.3147,70.39,78,63,4.43,RU,1691263314
89,brisas de zicatela,15.8369,-97.0419,88.32,55,75,6.91,MX,1691263314
90,shingu,33.7333,135.9833,78.87,91,89,3.74,JP,1691263295
91,tazacorte,28.629,-17.9293,75.15,80,20,18.41,ES,1691263314
92,thanh hoa,19.8,105.7667,75.74,91,100,4.43,VN,1691263314
93,san patricio,28.017,-97.5169,100.18,37,14,16.98,US,1691263314
94,balqash,46.8481,74.995,82.71,32,65,9.15,KZ,1691263314
95,butia,-30.1197,-51.9622,71.1,76,52,4.61,BR,1691263314
96,grande prairie,55.1667,-118.8027,73.58,46,20,4.61,CA,1691263314
97,prince rupert,54.3161,-130.3201,66.29,75,20,5.75,CA,1691263314
98,san luis de la loma,17.2706,-100.8939,89.04,57,69,6.02,MX,1691263315
99,petropavlovsk-kamchatsky,53.0452,158.6483,54.19,100,75,6.71,RU,1691263315
100,antofagasta,-23.65,-70.4,65.48,71,7,8.68,CL,1691263095
101,emerald,-23.5333,148.1667,54.91,77,0,5.46,AU,1691263315
102,kaa-khem,51.6833,94.7333,62.94,79,100,2.17,RU,1691263315
103,kayangel,8.0823,134.7173,81.54,77,100,7.65,PW,1691263315
104,moers,51.45,6.65,61.93,85,20,8.05,DE,1691263315
105,lebu,-37.6167,-73.65,55.33,70,0,4.5,CL,1691263315
106,itoman,26.1247,127.6694,80.98,94,75,41.43,JP,1691263316
107,tandil,-37.3217,-59.1332,57.69,49,100,10.74,AR,1691263316
108,guerrero negro,27.9769,-114.0611,79.74,50,8,11.01,MX,1691263316
109,long beach,33.767,-118.1892,94.87,69,0,13.8,US,1691263316
110,zeya,53.75,127.2667,56.64,55,0,3.18,RU,1691263316
111,yantzaza,-3.8278,-78.7594,79.61,70,56,3.09,EC,1691263316
112,necochea,-38.5473,-58.7368,55.87,51,100,11.77,AR,1691263316
113,utrik,11.2278,169.8474,82.26,68,96,16.93,MH,1691263316
114,alice springs,-23.7,133.8833,45.95,87,0,5.75,AU,1691263156
115,lihue,21.9789,-159.3672,81.99,71,20,12.66,US,1691263316
116,barika,35.389,5.3658,85.48,19,0,5.26,DZ,1691263317
117,trenggalek,-8.05,111.7167,73.63,87,77,1.83,ID,1691263317
118,port alfred,-33.5906,26.891,68.79,50,1,8.05,ZA,1691263317
119,plastun,44.7561,136.2939,58.19,95,100,3.69,RU,1691263317
120,manay,7.215,126.5397,78.35,85,83,7.67,PH,1691263317
121,ulsteinvik,62.3432,5.8487,56.32,77,100,5.99,NO,1691263317
122,hasaki,35.7333,140.8333,80.31,90,0,10.89,JP,1691263317
123,villa gesell,-37.2639,-56.973,56.05,58,100,10.47,AR,1691263317
124,coyhaique,-45.5752,-72.0662,46.35,49,75,10.36,CL,1691263294
125,pacific grove,36.6177,-121.9166,77.65,86,20,8.99,US,1691263318
126,altdorf,49.3875,11.3572,64.11,84,100,2.57,DE,1691263318
127,mata-utu,-13.2816,-176.1745,82.04,74,100,11.54,WF,1691263318
128,ushuaia,-54.8,-68.3,37.06,87,100,4.61,AR,1691263318
129,dwarka,22.2394,68.9678,81.39,82,100,19.89,IN,1691263318
130,dryden,49.7833,-92.7503,80.89,47,40,10.36,CA,1691263318
131,port lincoln,-34.7333,135.8667,52.86,63,100,7.4,AU,1691263318
132,formosa do rio preto,-11.0483,-45.1931,93.04,21,22,5.86,BR,1691263318
133,kalaleh,37.3807,55.4916,81.34,62,17,3.04,IR,1691263318
134,kovalam,8.3667,76.9967,84.29,74,40,9.22,IN,1691263318
135,bethanie,-26.4833,17.15,64.2,20,100,4.34,NA,1691263319
136,saudarkrokur,65.7461,-19.6394,52.27,70,93,4.36,IS,1691263319
137,novaya igirma,57.1334,103.9112,44.37,93,0,2.26,RU,1691263319
138,jamestown,42.097,-79.2353,77.02,65,100,5.75,US,1691263318
139,happy valley-goose bay,53.3168,-60.3315,73.71,49,75,9.22,CA,1691263319
140,itaituba,-4.2761,-55.9836,96.96,44,40,4.61,BR,1691263319
141,amuntai,-2.4177,115.2494,73.22,98,22,2.13,ID,1691263319
142,east ballina,-28.8667,153.5833,51.8,87,69,5.01,AU,1691263319
143,saint-joseph,-21.3667,55.6167,70.18,80,45,17.56,RE,1691263319
144,bikenibeu village,1.3673,173.1241,82.36,83,75,2.3,KI,1691263320
145,dunedin,-45.8742,170.5036,44.8,79,11,7.0,NZ,1691262977
146,cervantes,-39.05,-67.3833,56.79,42,100,9.42,AR,1691263320
147,afaahiti,-17.75,-149.2833,78.67,76,18,2.77,PF,1691263320
148,santa elena de uairen,4.6167,-61.1333,78.64,66,39,6.24,VE,1691263320
149,qaqortoq,60.7167,-46.0333,49.19,73,4,1.79,GL,1691263320
150,xilin hot,43.9667,116.0333,62.1,62,99,3.58,CN,1691263321
151,okha,53.5739,142.9478,51.6,88,21,3.78,RU,1691263321
152,pacasmayo,-7.4006,-79.5714,74.41,65,95,15.84,PE,1691263322
153,bhuj,23.2667,69.6667,81.36,78,100,17.02,IN,1691263049
154,praia da vitoria,38.7333,-27.0667,77.25,69,20,6.29,PT,1691263322
155,priozersk,61.0393,30.1291,66.94,92,100,1.99,RU,1691263322
156,tateyama,34.9833,139.8667,79.61,87,0,8.63,JP,1691263322
157,broken hill,-31.95,141.4333,41.25,82,0,10.22,AU,1691263055
158,port saint john's,-31.6229,29.5448,66.72,54,0,8.99,ZA,1691263322
159,rudnyy,52.9594,63.1206,68.23,70,33,4.74,KZ,1691263322
160,skive,56.5667,9.0333,61.32,80,12,5.03,DK,1691263323
161,bu'aale,1.0833,42.5833,75.07,73,73,11.77,SO,1691263323
162,olyokminsk,60.3736,120.4264,60.22,88,100,3.65,RU,1691263323
163,longyearbyen,78.2186,15.6401,49.84,93,100,9.22,SJ,1691263237
164,port elizabeth,-33.918,25.5701,70.11,88,0,2.3,ZA,1691263189
165,taixing,32.1667,120.0136,78.39,88,0,4.97,CN,1691263323
166,stanley,54.868,-1.6985,54.28,83,20,8.05,GB,1691263323
167,caleta de carquin,-11.0925,-77.6267,69.94,68,71,9.98,PE,1691263324
168,novodvinsk,64.4165,40.8122,60.6,98,4,5.35,RU,1691263324
169,zhangye,38.9342,100.4517,75.2,45,100,10.47,CN,1691263324
170,alofi,-19.0595,-169.9187,73.29,94,100,2.3,NU,1691263324
171,papatowai,-46.5619,169.4708,43.16,80,100,7.99,NZ,1691263324
172,ambovombe,-25.1667,46.0833,65.39,66,0,14.9,MG,1691263324
173,mokhsogollokh,61.4681,128.9203,56.71,59,52,2.39,RU,1691263324
174,skovorodino,53.9833,123.9167,53.64,68,6,1.81,RU,1691263325
175,port-gentil,-0.7193,8.7815,73.36,88,40,8.05,GA,1691263325
176,amursk,50.2261,136.8994,58.1,71,93,3.56,RU,1691263325
177,richards bay,-28.783,32.0377,66.25,74,18,10.29,ZA,1691263325
178,pozanti,37.4278,34.8717,74.12,74,0,0.78,TR,1691263325
179,nemuro,43.3236,145.575,58.44,97,100,6.78,JP,1691263227
180,vorozhba,51.1733,34.2192,74.05,64,0,8.86,UA,1691263325
181,howrah,22.5892,88.3103,84.2,84,75,8.05,IN,1691263326
182,kununurra,-15.7667,128.7333,76.98,36,100,6.91,AU,1691263127
183,garango,11.8,-0.5506,81.07,64,100,8.43,BF,1691263326
184,albany,42.6001,-73.9662,80.94,57,100,8.46,US,1691263244
185,reggane,26.7158,0.1714,110.61,6,0,10.54,DZ,1691263264
186,pisco,-13.7,-76.2167,71.65,64,0,10.36,PE,1691263326
187,udachny,66.4167,112.4,50.45,70,98,10.49,RU,1691263317
188,tibanbang,6.6315,126.1055,81.16,82,76,4.97,PH,1691263326
189,kurmuk,10.55,34.2833,68.47,87,100,2.59,SD,1691263326
190,lagunas,-5.2269,-75.6753,93.18,42,61,1.97,PE,1691263327
191,zachary,30.6485,-91.1565,99.75,47,20,4.61,US,1691263037
192,djibo,14.1022,-1.6306,92.25,47,100,16.11,BF,1691263327
193,wynyard,-41.0,145.7167,44.98,90,24,6.35,AU,1691263327
194,yuzhno-kurilsk,44.0306,145.8556,56.08,97,100,9.51,RU,1691263327
195,palikir - national government center,6.9248,158.1611,75.94,94,100,2.3,FM,1691263327
196,kalmunai,7.4167,81.8167,80.67,80,100,5.77,LK,1691263327
197,avarua,-21.2078,-159.775,71.65,78,100,5.75,CK,1691263266
198,krasnokholm,51.5979,54.1567,76.39,45,6,4.65,RU,1691263327
199,fort bragg,35.139,-79.006,91.81,54,20,8.05,US,1691263241
200,hadibu,12.65,54.0333,78.57,78,9,17.52,YE,1691263328
201,guangyuan,32.442,105.823,75.78,96,92,1.14,CN,1691263328
202,los frentones,-26.4077,-61.4137,96.53,18,0,13.96,AR,1691263328
203,ascencion,31.1,-107.9833,98.04,15,0,3.47,MX,1691263328
204,kudymkar,59.0173,54.656,63.48,96,2,6.64,RU,1691263328
205,rio gallegos,-51.6226,-69.2181,50.05,46,20,26.46,AR,1691263311
206,invercargill,-46.4,168.35,44.02,86,100,5.01,NZ,1691263328
207,gadzhiyevo,69.2551,33.3362,51.42,95,100,13.69,RU,1691263328
208,nar'yan-mar,67.6713,53.087,67.68,81,19,6.53,RU,1691263249
209,al kharj,24.155,47.3346,97.38,8,100,10.36,SA,1691263329
210,hermanus,-34.4187,19.2345,49.8,89,100,4.27,ZA,1691263329
211,upata,8.0086,-62.3989,88.2,56,100,5.03,VE,1691263329
212,polyarnyy,69.1989,33.4478,51.69,94,100,13.76,RU,1691263329
213,jiangyou,31.7667,104.7167,75.88,90,48,3.22,CN,1691263329
214,itamaraca,-7.7478,-34.8256,80.65,73,28,9.95,BR,1691263329
215,i-n-salah,27.1935,2.4607,107.58,6,0,8.25,DZ,1691263329
216,flying fish cove,-10.4217,105.6791,76.68,88,100,13.8,CX,1691263330
217,mil'kovo,55.6078,37.7956,73.54,62,1,4.25,RU,1691263330
218,haflong,25.1833,93.0333,73.83,99,100,3.85,IN,1691263330
219,enewetak,11.3474,162.3373,83.17,75,100,13.73,MH,1691263275
220,nichlaul,27.3167,83.7333,80.76,88,100,5.79,IN,1691263330
221,santa isabel,-23.3156,-46.2214,84.96,26,0,5.1,BR,1691263330
222,mejit,10.2753,170.8646,81.9,76,100,14.85,MH,1691263330
223,novyy urengoy,66.0833,76.6333,68.04,58,8,6.8,RU,1691263236
224,kiunga,-6.1219,141.2906,70.36,95,100,1.34,PG,1691263330
225,atakpame,7.5333,1.1333,73.72,90,100,3.51,TG,1691263331
226,camana,-16.6228,-72.7111,66.63,69,6,5.68,PE,1691263331
227,harper,4.375,-7.7169,76.68,85,95,11.36,LR,1691263331
228,smithers,54.7804,-127.1743,75.52,43,75,3.44,CA,1691263331
229,barra de santo antonio,-9.4047,-35.5072,79.88,76,17,8.19,BR,1691263331
230,constitucion,-35.3333,-72.4167,55.04,80,100,11.23,CL,1691263196
231,fada,9.5667,8.3,70.9,94,100,2.42,NG,1691263331
232,palmer,42.1584,-72.3287,85.24,49,75,4.61,US,1691263331
233,gidam,18.9833,81.4,74.57,92,44,2.64,IN,1691263331
234,lamballe,48.4676,-2.5144,61.0,74,7,23.96,FR,1691263332
235,clinton,42.587,-82.9199,83.95,61,100,10.36,US,1691263331
236,ingeniero guillermo n. juarez,-23.9,-61.85,95.67,18,0,15.82,AR,1691263332
237,cockburn town,21.4612,-71.1419,87.76,66,40,13.8,TC,1691263332
238,barpathar,26.3,93.8667,76.53,97,100,2.57,IN,1691263332
239,mananjary,-21.2167,48.3333,66.65,83,97,5.12,MG,1691263332
240,kupang,-10.1667,123.5833,73.85,79,0,10.31,ID,1691263332
241,nagqu,31.5,92.0,38.17,88,7,3.36,CN,1691263332
242,karratha,-20.7377,116.8463,73.62,42,0,8.46,AU,1691263332
243,fortuna,40.5982,-124.1573,69.93,80,0,13.8,US,1691263331
244,debre birhan,9.6833,39.5333,53.35,79,95,4.45,ET,1691263333
245,mount isa,-20.7333,139.5,56.97,58,0,5.75,AU,1691263333
246,forster,-32.1667,152.5167,48.38,99,12,8.28,AU,1691263333
247,bilibino,68.0546,166.4372,39.51,96,100,5.95,RU,1691263223
248,arraial do cabo,-22.9661,-42.0278,73.36,78,0,11.5,BR,1691263333
249,colares,38.7992,-9.4469,87.46,24,0,24.16,PT,1691263333
250,callao,-12.0667,-77.15,73.69,60,0,12.66,PE,1691263333
251,nuuk,64.1835,-51.7216,50.61,81,100,2.3,GL,1691263334
252,qamdo,31.1667,97.2333,43.54,94,100,4.59,CN,1691263334
253,zadar,44.1197,15.2422,68.61,83,0,5.75,HR,1691263053
254,federacion,-31.0062,-57.8996,74.59,61,0,8.16,AR,1691263334
255,pimentel,-6.8367,-79.9342,79.09,61,75,8.05,PE,1691263334
256,yung shue wan,22.2333,114.1167,86.68,84,93,16.67,HK,1691263334
257,busan,35.1028,129.0403,80.58,78,20,2.3,KR,1691263334
258,st. john's,47.5649,-52.7093,68.68,73,75,13.8,CA,1691263201
259,novouzensk,50.4592,48.1431,85.59,32,0,6.91,RU,1691263334
260,remire-montjoly,4.9167,-52.2667,89.64,66,0,12.66,GF,1691263335
261,touros,-5.1989,-35.4608,80.35,72,100,17.98,BR,1691263335
262,petrovsk,52.3064,45.3917,73.53,66,0,6.93,RU,1691263335
263,knaresborough,54.0091,-1.4685,55.51,87,100,8.99,GB,1691263335
264,constantia,44.1833,28.65,74.08,84,0,9.93,RO,1691263257
265,nova sintra,14.8667,-24.7167,72.9,79,5,15.48,CV,1691263335
266,galliano,29.4422,-90.2992,100.99,49,40,6.91,US,1691263335
267,punta arenas,-53.15,-70.9167,40.69,91,100,29.19,CL,1691263335
268,dukku,10.8231,10.7717,74.01,86,100,4.43,NG,1691263336
269,jalalabad,34.4265,70.4515,84.38,54,0,4.07,AF,1691263336
270,sokoni,-6.4333,39.55,76.03,83,65,14.41,TZ,1691263336
271,kristiansund,63.1115,7.732,57.25,67,75,5.75,NO,1691263336
272,taroa,8.7058,171.2275,82.35,69,90,13.78,MH,1691263336
273,el nido,11.1858,119.3956,80.96,81,6,9.57,PH,1691263336
274,port macquarie,-31.4333,152.9167,49.89,84,8,5.44,AU,1691263300
275,issenye,-2.0,34.3333,73.94,42,100,4.29,TZ,1691263336
276,kirensk,57.7853,108.1119,58.69,79,100,3.24,RU,1691263337
277,panaba,21.2833,-88.2667,97.2,42,58,13.6,MX,1691263337
278,hirara,24.8,125.2833,82.67,89,100,20.71,JP,1691263337
279,sola,-13.8833,167.55,76.91,81,73,15.48,VU,1691263337
280,mermoz boabab,14.7065,-17.4758,86.56,79,66,10.11,SN,1691263337
281,acapulco de juarez,16.8634,-99.8901,89.42,58,20,10.36,MX,1691263268
282,badger,64.8,-147.5333,72.99,59,100,0.0,US,1691263337
283,tamanrasset,22.785,5.5228,85.91,26,40,11.5,DZ,1691263337
284,mount pleasant,32.7941,-79.8626,89.74,75,20,6.91,US,1691263338
285,saint-philippe,-21.3585,55.7679,71.19,81,87,17.34,RE,1691263338
286,kangding,30.0513,101.9603,60.89,98,100,0.81,CN,1691263338
287,casas grandes,30.3667,-107.95,95.9,18,0,6.93,MX,1691263338
288,nogliki,51.8333,143.1667,51.48,87,44,3.69,RU,1691263338
289,hithadhoo,-0.6,73.0833,81.12,77,100,6.55,MV,1691263338
290,shenjiamen,29.9576,122.298,79.23,90,1,7.96,CN,1691263338
291,dubbo,-32.25,148.6167,44.73,93,75,10.36,AU,1691263338
292,vernon,50.2581,-119.2691,84.92,24,100,2.3,CA,1691263339
293,aasiaat,68.7098,-52.8699,35.37,93,86,5.88,GL,1691263339
294,tobelo,1.7284,128.0095,79.11,84,100,7.18,ID,1691263098
295,gransee,53.007,13.1575,64.13,68,100,4.05,DE,1691263339
296,severo-yeniseyskiy,60.3725,93.0408,46.53,99,100,3.36,RU,1691263339
297,chengde,40.9725,117.9361,66.16,71,51,0.65,CN,1691263339
298,tazovsky,67.4667,78.7,57.58,57,6,5.82,RU,1691263275
299,homer,59.6425,-151.5483,63.77,68,75,3.44,US,1691263339
300,kanniyakumari,8.0833,77.5667,80.2,74,100,18.14,IN,1691263340
301,coahuayana de hidalgo,18.7,-103.6583,91.31,50,100,2.15,MX,1691263340
302,vorgashor,67.5833,63.95,64.13,54,0,5.1,RU,1691263340
303,luanda,-8.8368,13.2343,71.6,83,75,11.5,AO,1691263295
304,tayshet,55.9342,98.0044,47.39,80,21,3.96,RU,1691263340
305,keflavik,64.0049,-22.5624,55.31,100,100,12.66,IS,1691263340
306,tvoroyri,61.5556,-6.8111,52.56,79,100,4.25,FO,1691263340
307,kloulklubed,7.0419,134.2556,81.54,74,100,8.25,PW,1691263341
308,manicore,-5.8092,-61.3003,93.15,55,0,3.44,BR,1691263341
309,kuhmo,64.1333,29.5167,58.26,96,8,5.1,FI,1691263341
310,chonchi,-42.6128,-73.8092,53.11,75,100,3.42,CL,1691263045
311,cerqueira cesar,-23.0356,-49.1661,83.03,18,0,1.54,BR,1691263341
312,vera cruz,-12.6333,-41.0333,81.97,31,0,7.16,BR,1691263341
313,albertina,-22.2008,-46.6158,81.27,16,0,5.77,BR,1691263341
314,saldanha,-33.0117,17.9442,50.05,89,100,3.94,ZA,1691263341
315,andergrove,-21.0833,149.1833,63.81,85,6,16.78,AU,1691263310
316,san antonio de pale,-1.4014,5.6325,73.04,76,44,10.51,GQ,1691263225
317,malpica,43.3228,-8.8105,67.89,80,92,14.23,ES,1691263342
318,freetown,8.484,-13.2299,77.99,89,67,8.95,SL,1691263342
319,lyepyel',54.8814,28.6932,72.68,84,100,7.94,BY,1691263342
320,severodvinsk,64.5635,39.8302,61.59,91,22,8.01,RU,1691263342
321,rio preto da eva,-2.6994,-59.6997,101.03,24,43,3.96,BR,1691263342
322,vedea,43.7833,25.7833,79.68,51,0,16.26,RO,1691263342
323,hobyo,5.3505,48.5268,77.59,81,70,27.78,SO,1691263343
324,piedra blanca,18.8443,-70.3169,91.33,53,46,6.73,DO,1691263343
325,lorengau,-2.0226,147.2712,78.75,85,100,10.2,PG,1691263343
326,kone,-21.0595,164.8658,61.43,88,19,5.59,NC,1691263303
327,pianco,-7.1981,-37.9292,94.39,22,2,6.44,BR,1691263343
328,howard springs,-12.497,131.047,73.31,45,5,6.33,AU,1691263343
329,twon-brass,4.3151,6.2418,78.3,83,56,15.57,NG,1691263343
330,bahia honda,22.9036,-83.1592,86.83,65,52,7.92,CU,1691263343
331,klyuchi,52.2667,79.1667,66.92,68,89,4.05,RU,1691263188
332,hammerfest,70.6634,23.6821,52.25,76,100,17.27,NO,1691263343
333,ashmyany,54.425,25.9378,68.0,92,51,6.6,BY,1691263344
334,sogndal,61.2283,7.1003,62.98,77,100,0.0,NO,1691263344
335,sisimiut,66.9395,-53.6735,46.15,73,16,7.76,GL,1691263344
336,las tablas,7.7667,-80.2833,84.65,76,100,12.39,PA,1691263344
337,tosontsengel,48.7567,98.2839,48.13,91,70,1.92,MN,1691263344
338,faya-largeau,17.9257,19.1043,92.61,45,4,11.59,TD,1691263344
339,okap,19.7578,-72.2042,89.55,62,40,16.11,HT,1691263345
340,de queen,34.0379,-94.3413,100.53,41,0,8.05,US,1691263345
341,sao gabriel,-30.3364,-54.32,73.8,74,0,9.06,BR,1691263345
342,east london,-33.0153,27.9116,68.49,44,0,9.13,ZA,1691263345
343,porto franco,-6.3383,-47.3992,94.24,33,53,7.9,BR,1691263345
344,alaghsas,17.0187,8.0168,96.01,27,100,8.23,NE,1691263346
345,piti village,13.4626,144.6933,81.48,88,0,0.0,GU,1691263346
346,ketchikan,55.3422,-131.6461,70.27,60,75,5.75,US,1691263346
347,allende,25.2833,-100.0167,102.24,20,0,8.1,MX,1691263053
348,haiku-pauwela,20.9219,-156.3051,81.18,60,20,19.57,US,1691263242
349,kundiawa,-6.0167,144.9667,59.7,98,100,1.57,PG,1691263346
350,colonia,50.9333,6.95,63.43,86,0,5.75,DE,1691263083
351,alo,7.4178,6.7371,75.65,94,100,4.52,NG,1691263346
352,vodnyy,63.5046,53.4095,62.71,97,85,1.7,RU,1691263347
353,palu,-0.8917,119.8707,75.15,96,12,3.51,ID,1691263347
354,guarapari,-20.6667,-40.4975,77.9,72,3,8.72,BR,1691263055
355,iwanai,42.9744,140.5089,72.91,99,100,2.19,JP,1691263347
356,dalandzadgad,43.5708,104.425,78.24,17,57,9.64,MN,1691263347
357,geraldton,-28.7667,114.6,48.61,93,10,3.44,AU,1691263347
358,chardara,41.2547,67.9692,81.82,34,51,8.77,KZ,1691263347
359,cromwell,41.5951,-72.6454,87.04,55,40,8.05,US,1691263347
360,amahai,-3.3333,128.9167,75.45,89,94,9.24,ID,1691263348
361,broome,42.2506,-75.833,80.62,63,75,8.05,US,1691263348
362,chanal,16.7167,-92.4,75.76,47,4,5.91,MX,1691263348
363,taoudenni,22.6783,-3.9836,112.95,6,20,6.58,ML,1691263275
364,uturoa,-16.7333,-151.4333,78.4,73,5,7.92,PF,1691263348
365,tanquian de escobedo,21.6167,-98.6333,98.31,37,50,5.66,MX,1691263348
366,zakamensk,50.3741,103.2863,56.8,98,100,2.19,RU,1691263348
367,aykhal,66.0,111.5,50.72,66,24,15.93,RU,1691263348
368,dien bien phu,21.3833,103.0167,72.52,100,100,2.21,VN,1691263348
369,tadine,-21.55,167.8833,67.98,76,88,20.2,NC,1691263349
370,alma,48.5501,-71.6491,67.21,96,99,8.75,CA,1691263349
371,rongelap,11.1635,166.8941,83.08,74,62,15.66,MH,1691263349
372,robore,-18.3333,-59.75,97.47,17,2,8.72,BO,1691263349
373,cabimas,10.3883,-71.4399,89.64,63,56,8.21,VE,1691263224
374,shibushi,31.4667,131.105,78.42,94,100,8.12,JP,1691263349
375,slave lake,55.2834,-114.769,66.18,77,0,4.61,CA,1691263068
376,auki,-8.7676,160.7034,75.13,93,100,8.21,SB,1691263349
377,vilyuysk,63.7553,121.6247,58.75,62,100,6.96,RU,1691263350
378,rapid city,44.0805,-103.231,61.75,90,100,26.46,US,1691263348
379,prainha,-1.8,-53.48,97.09,33,20,4.63,BR,1691263350
380,daru,-9.0763,143.2092,75.02,78,94,15.82,PG,1691263350
381,hushitai,41.9322,123.5114,62.51,88,23,4.97,CN,1691263350
382,bardai,11.65,7.2333,73.45,87,100,6.91,NG,1691263350
383,salalah,17.0151,54.0924,78.89,100,100,5.75,OM,1691263350
384,goondiwindi,-28.55,150.3167,49.82,75,6,5.57,AU,1691263351
385,songea,-10.6833,35.65,60.08,83,57,3.53,TZ,1691263351
386,aoulef,26.9667,1.0833,109.04,6,0,7.96,DZ,1691263351
387,hell-ville,-13.4,48.2667,78.31,71,5,4.88,MG,1691263137
388,puerto boyaca,5.9758,-74.5885,99.32,33,90,2.06,CO,1691263351
389,tofol,5.3248,163.0078,82.58,70,40,2.8,FM,1691263351
390,coquimbo,-29.9533,-71.3436,58.73,88,100,10.36,CL,1691263351
391,baoding,38.8511,115.4903,74.5,87,51,5.32,CN,1691263235
392,ebon,4.582,168.6964,83.48,77,18,14.12,MH,1691263351
393,sechura,-5.5569,-80.8222,82.63,51,1,11.03,PE,1691263352
394,shar,49.5886,81.0453,70.88,60,15,3.42,KZ,1691263352
395,amasra,41.7463,32.3863,77.85,64,0,4.81,TR,1691263352
396,rancho palos verdes,33.7445,-118.387,90.99,79,0,13.8,US,1691263352
397,mar del plata,-38.0023,-57.5575,55.94,60,0,12.66,AR,1691263292
398,mount pearl,47.5166,-52.7813,68.85,73,75,13.8,CA,1691263352
399,quellon,-43.1167,-73.6167,48.45,76,75,6.91,CL,1691263352
400,bubaque,11.2833,-15.8333,82.38,78,100,6.87,GW,1691263352
401,tranqueras,-31.2,-55.75,75.07,63,0,7.14,UY,1691263352
402,roma,43.2128,-75.4557,78.39,61,40,4.61,US,1691263353
403,tagiura,32.8817,13.3506,79.72,56,0,9.93,LY,1691263353
404,fremont,37.5483,-121.9886,92.37,55,0,8.05,US,1691263215
405,puttalam,8.0362,79.8283,80.1,83,98,16.17,LK,1691263353
406,galdar,28.147,-15.6502,75.7,76,33,13.96,ES,1691263353
407,igarka,67.4667,86.5833,58.46,62,0,5.1,RU,1691263353
408,castillos,-34.1667,-53.8333,58.62,51,1,7.92,UY,1691263353
409,qarazhal,48.0078,70.7903,78.93,38,100,9.6,KZ,1691263353
410,garoowe,8.4054,48.4845,83.16,46,42,30.47,SO,1691263354
411,al kiswah,33.3572,36.2428,79.29,36,0,3.06,SY,1691263354
412,ancud,-41.8697,-73.8203,48.7,68,34,2.59,CL,1691263354
413,kargopol',61.5071,38.9456,60.55,82,4,5.14,RU,1691263354
414,minas de marcona,-15.2119,-75.1103,64.0,58,7,8.77,PE,1691263354
415,queenstown,-31.8976,26.8753,57.07,33,0,6.08,ZA,1691263354
416,kokpekty,48.75,82.4,67.62,63,7,3.42,KZ,1691263354
417,westport,41.1415,-73.3579,86.09,58,40,8.05,US,1691263354
418,mugia,43.1041,-9.2179,73.9,88,67,20.13,ES,1691263355
419,cadale,2.7603,46.3222,77.45,81,66,17.6,SO,1691263355
420,romans-sur-isere,45.0464,5.0562,73.83,55,75,10.94,FR,1691263355
421,leninskoye,41.7589,69.3864,78.62,27,28,5.93,KZ,1691263355
422,tsiombe,-25.3,45.4833,66.83,62,0,14.97,MG,1691263355
423,bezerros,-8.2333,-35.7969,75.56,67,21,12.8,BR,1691263188
424,portrush,55.1959,-6.6493,59.49,75,75,4.0,GB,1691263355
425,maksatikha,57.797,35.8825,65.61,78,0,2.8,RU,1691263355
426,chillicothe,39.3331,-82.9824,85.24,57,0,5.75,US,1691263115
427,hotan,37.0997,79.9269,87.96,24,97,1.07,CN,1691263355
428,akureyri,65.6835,-18.0878,53.53,82,100,10.36,IS,1691263356
429,cumra,37.5732,32.7745,80.74,24,0,6.33,TR,1691263356
430,tarko-sale,64.9225,77.785,66.38,52,8,7.87,RU,1691263356
431,lisakovsk,52.5369,62.4936,68.99,78,7,7.14,KZ,1691263356
432,tsumeb,-19.2333,17.7167,65.44,25,0,9.66,NA,1691263356
433,mogok,22.9167,96.5,66.52,99,100,4.32,MM,1691263356
434,kibre mengist,5.8833,38.9833,61.84,73,97,2.37,ET,1691263356
435,poronaysk,49.2167,143.1167,56.23,93,100,1.99,RU,1691263356
436,walvis bay,-22.9575,14.5053,56.35,82,0,1.14,NA,1691263356
437,maine soroa,13.2114,12.0241,83.62,61,100,11.83,NE,1691263357
438,millau,44.0833,2.9167,63.01,73,57,10.36,FR,1691263357
439,tolanaro,-25.0319,46.9987,68.07,73,20,13.8,MG,1691263334
440,gebeit,21.0667,36.3167,88.41,41,100,10.16,SD,1691263357
441,baniyas,35.1819,35.9487,80.89,82,15,7.65,SY,1691263357
442,ventspils,57.3894,21.5606,64.33,94,40,0.0,LV,1691263357
443,gabane,-24.6667,25.7822,50.83,46,0,5.75,BW,1691263357
444,bonthe,7.5264,-12.505,77.67,88,79,9.95,SL,1691263358
445,susuman,62.7833,148.1667,46.53,70,23,2.71,RU,1691263355
446,sao paulo de olivenca,-3.3783,-68.8725,93.11,44,97,2.84,BR,1691263358
447,celendin,-6.8703,-78.1517,72.12,38,53,8.21,PE,1691263358
448,gizo,-8.103,156.8419,78.39,78,100,19.64,SB,1691263358
449,buchanan,5.8808,-10.0467,77.43,85,98,12.71,LR,1691263194
450,amos,48.5669,-78.1162,72.16,41,62,8.3,CA,1691263358
451,ngong,-1.3618,36.6566,61.09,63,75,11.5,KE,1691263358
452,yanchep,-31.55,115.6833,49.6,78,100,5.1,AU,1691263358
453,nicoya,10.1483,-85.452,90.16,55,10,6.69,CR,1691263358
454,de soto,34.9248,-89.9904,99.88,50,40,11.5,US,1691263359
455,la sarre,48.8002,-79.1996,74.46,29,5,8.14,CA,1691263359
456,novodnistrovsk,48.5849,27.4311,77.86,39,0,8.7,UA,1691263359
457,port augusta,-32.5,137.7667,41.7,83,0,4.47,AU,1691263158
458,griffith,41.5284,-87.4237,71.94,91,100,10.36,US,1691263359
459,quibdo,5.6947,-76.6611,93.54,59,20,0.0,CO,1691263359
460,derzhavinsk,51.1,66.3167,71.69,59,23,8.9,KZ,1691263332
461,telimele,10.9167,-13.3333,75.36,92,100,2.62,GN,1691263359
462,boca do acre,-8.7522,-67.3978,99.37,25,90,2.06,BR,1691263359
463,pitimbu,-7.4706,-34.8086,82.99,76,9,11.79,BR,1691263360
464,thabazimbi,-24.5917,27.4116,57.58,41,5,3.42,ZA,1691263360
465,forres,57.6113,-3.6108,58.21,72,75,6.91,GB,1691263360
466,mali,12.079,-12.2982,65.95,90,100,1.16,GN,1691263360
467,tralee,52.2704,-9.7026,57.61,89,95,9.04,IE,1691263360
468,sao francisco,-15.9486,-44.8644,90.72,15,100,4.09,BR,1691263360
469,laghouat,33.8,2.8651,88.12,12,0,9.04,DZ,1691263360
470,sanchursk,56.9413,47.2499,67.17,74,0,5.03,RU,1691263360
471,paramonga,-10.6667,-77.8333,70.03,69,100,10.47,PE,1691263360
472,nampa,43.5407,-116.5635,84.54,46,0,3.0,US,1691263345
473,vila franca do campo,37.7167,-25.4333,73.81,71,100,6.31,PT,1691263361
474,kharp,66.8014,65.8081,65.48,59,0,5.73,RU,1691263361
475,klaksvik,62.2266,-6.589,54.52,76,99,1.68,FO,1691263361
476,sena madureira,-9.0656,-68.6569,100.85,24,50,0.69,BR,1691263361
477,bei'an,24.5399,109.533,77.14,92,90,2.06,CN,1691263361
478,impfondo,1.6381,18.0667,78.24,69,100,1.5,CG,1691263361
479,baotou,40.6522,109.8222,79.5,43,11,7.2,CN,1691263361
480,yinchuan,38.4681,106.2731,82.04,40,94,7.02,CN,1691263361
481,chibougamau,49.9168,-74.3659,73.02,38,40,16.11,CA,1691263361
482,nabire,-3.3667,135.4833,73.71,92,100,5.95,ID,1691263302
483,sao miguel do araguaia,-13.275,-50.1628,97.84,16,0,4.68,BR,1691263362
484,la ronge,55.1001,-105.2842,75.42,46,40,17.27,CA,1691263356
485,am timan,11.0297,20.2827,73.27,91,95,5.06,TD,1691263362
486,jabor,5.921,169.6434,82.74,78,44,13.53,MH,1691263362
487,dawukou,39.0419,106.3958,82.4,34,100,4.27,CN,1691263362
488,caldwell,43.6629,-116.6874,84.34,44,0,0.0,US,1691263362
489,sodankyla,67.4167,26.6,52.12,88,90,5.61,FI,1691263362
490,banepa,27.6298,85.5214,70.12,94,75,3.44,NP,1691263362
491,portland,45.5234,-122.6762,77.56,71,75,3.44,US,1691262851
492,willemstad,12.1084,-68.9335,89.51,70,20,14.97,CW,1691263066
493,visby,57.6409,18.296,59.83,82,100,5.75,SE,1691263363
494,kanker,20.2719,81.4931,77.16,81,98,8.12,IN,1691263363
495,farafangana,-22.8167,47.8333,68.4,72,100,8.81,MG,1691263363
496,sittwe,20.15,92.9,81.34,85,78,13.27,MM,1691263363
497,manta,-0.95,-80.7333,85.78,78,75,17.0,EC,1691263064
498,makarov,48.6333,142.8,58.05,85,100,1.23,RU,1691263363
499,bani walid,31.7566,13.9942,76.93,55,0,18.14,LY,1691263363
500,santa ana,33.7456,-117.8678,97.86,56,0,10.36,US,1691263309
501,tuljapur,18.0,76.0833,73.35,84,55,9.66,IN,1691263364
502,hampton bays,40.869,-72.5176,86.0,73,0,0.0,US,1691263364
503,berezovo,63.9381,65.0419,71.24,60,66,8.43,RU,1691263364
504,hilo,19.7297,-155.09,82.27,76,100,4.61,US,1691263364
505,somanda,-3.3667,33.95,71.83,46,43,14.25,TZ,1691263364
506,cestos city,5.46,-9.5828,77.5,85,100,13.02,LR,1691263364
507,huautla de jimenez,18.1315,-96.8409,71.28,68,100,4.32,MX,1691263364
508,iskateley,67.6803,53.1512,67.59,81,17,6.51,RU,1691263364
509,nurabad,34.0734,47.9725,77.36,17,32,2.95,IR,1691263364
510,lompoc,34.6391,-120.4579,82.85,94,100,16.11,US,1691263080
511,kyabe,9.4515,18.9449,73.62,94,83,3.29,TD,1691263365
512,inongo,-1.95,18.2667,76.96,58,10,4.07,CD,1691263365
513,kalemie,-5.9475,29.1947,73.06,55,3,1.01,CD,1691263365
514,turpan,42.9333,89.1667,97.54,17,44,5.95,CN,1691263365
515,suances,43.4334,-4.0434,68.11,94,75,8.05,ES,1691263365
516,staroderevyankovskaya,46.1276,38.9674,87.39,28,0,12.91,RU,1691263365
517,natal,-5.795,-35.2094,83.05,69,40,18.41,BR,1691263365
518,lospalos,-8.5186,127.0025,66.45,88,98,4.12,TL,1691263267
519,aitape,-3.1374,142.3475,76.01,90,100,4.74,PG,1691263366
520,porbandar,21.6422,69.6093,80.92,83,100,18.37,IN,1691263245
521,abra pampa,-22.7205,-65.697,61.3,8,0,2.68,AR,1691263366
522,bridgewater,44.3835,-64.5155,77.11,75,98,13.8,CA,1691263215
523,mchinji,-13.7984,32.8802,61.84,66,53,5.03,MW,1691263366
524,beacon,41.5048,-73.9696,83.91,58,40,6.91,US,1691263366
525,banda aceh,5.5577,95.3222,80.1,83,90,5.88,ID,1691263366
526,borogontsy,62.6683,131.1683,58.48,66,20,1.23,RU,1691263366
527,selfoss,63.9331,-20.9971,56.05,83,86,9.6,IS,1691263352
528,springs,-26.25,28.4,51.67,67,0,2.95,ZA,1691263366
529,mahina,-17.5065,-149.489,80.37,69,20,3.44,PF,1691263366
530,kuytun,54.3419,101.5036,52.27,76,87,5.21,RU,1691263367
531,tangalle,6.024,80.7911,79.7,83,100,12.08,LK,1691263367
532,north bend,43.4065,-124.2243,78.24,77,100,12.66,US,1691263119
533,port-vila,-17.7338,168.3219,69.4,94,40,2.3,VU,1691263367
534,laguna,38.421,-121.4238,93.31,45,0,8.05,US,1691263367
535,langepas,61.2544,75.2124,60.67,56,0,6.2,RU,1691263367
536,inirida,3.8653,-67.9239,88.92,61,49,0.69,CO,1691263367
537,el obeid,13.1842,30.2167,77.81,71,100,18.3,SD,1691263367
538,sao joao da barra,-21.6403,-41.0511,78.89,75,0,11.41,BR,1691263367
539,wangon,-7.5161,109.0539,74.52,88,100,3.0,ID,1691263368
540,mogocha,53.7333,119.7667,52.5,64,100,2.77,RU,1691263368
541,sosnovo-ozerskoye,52.5249,111.5418,57.79,84,86,8.61,RU,1691263368
542,singkil,-7.9855,111.4161,71.42,91,11,4.45,ID,1691263368
543,aginskoye,51.1,114.53,59.11,94,100,5.61,RU,1691263368
544,carbonear,47.7332,-53.2148,70.14,76,32,10.16,CA,1691263368
545,rosarito,32.3333,-117.0333,87.24,68,25,7.9,MX,1691263369
546,amga,60.8953,131.9608,55.78,67,76,1.54,RU,1691263369
547,port hueneme,34.1478,-119.1951,100.2,72,20,11.5,US,1691263369
548,manakara,-22.1333,48.0167,67.57,74,90,4.14,MG,1691263369
549,el abiodh sidi cheikh,32.893,0.5484,91.72,17,0,5.79,DZ,1691263369
550,lata,40.1629,-8.3327,74.07,37,0,4.29,PT,1691263369
551,luganville,-15.5333,167.1667,73.51,89,89,7.23,VU,1691263369
552,newman,37.3138,-121.0208,92.05,19,0,4.79,US,1691263369
553,mosjoen,65.836,13.1908,55.92,76,100,2.3,NO,1691263369
554,dakhla,23.6848,-15.958,73.42,73,0,23.02,EH,1691263369
555,vadso,70.0744,29.7487,55.56,82,100,5.75,NO,1691263370
556,red oak,32.5176,-96.8044,106.95,31,0,8.05,US,1691263196
557,burang,30.25,81.1667,55.18,79,100,5.06,CN,1691263370
558,tocopilla,-22.092,-70.1979,67.6,66,19,8.37,CL,1691263370
559,sibiti,-3.6819,13.3499,78.06,48,21,5.77,CG,1691263370
560,kenai,60.5544,-151.2583,62.69,66,100,3.44,US,1691263370
561,rio branco,-9.9747,-67.81,95.61,41,40,3.44,BR,1691263370
562,kismayo,-0.3582,42.5454,76.5,83,22,16.49,SO,1691263370
563,tulun,54.5611,100.5792,55.15,67,81,3.71,RU,1691263370
564,oxapampa,-10.5775,-75.4017,71.29,57,39,4.54,PE,1691263370
565,kulhudhuffushi,6.6221,73.07,82.47,78,99,13.6,MV,1691263371
566,greenfield,42.9614,-88.0126,81.1,74,100,10.36,US,1691263310
567,orange,33.7,-117.7675,98.56,52,0,10.36,US,1691263371
568,nizhnesortymskiy,62.4397,71.7603,64.02,52,0,9.93,RU,1691263371
569,hovd,48.0056,91.6419,67.1,41,83,3.83,MN,1691263371
570,riviere-du-loup,47.8304,-69.5342,62.87,82,43,3.44,CA,1691263260
571,alexandria,31.2156,29.9553,82.94,52,0,8.23,EG,1691262732
572,novyy oskol,50.7631,37.8691,74.1,60,3,6.49,RU,1691263371
573,gazojak,41.1875,61.4036,89.17,25,56,10.02,TM,1691263371
574,codrington,-38.2667,141.9667,47.07,81,33,3.67,AU,1691263371
575,realico,-35.0366,-64.2447,71.31,37,30,13.78,AR,1691263372
576,kruisfontein,-34.0033,24.7314,67.89,38,8,7.11,ZA,1691263372
577,puerto colombia,10.9878,-74.9547,96.89,71,30,19.89,CO,1691263372
578,maceio,-9.6658,-35.7353,80.04,73,40,12.66,BR,1691263372
579,montehermoso,40.0437,-6.3389,93.85,15,0,10.09,ES,1691263372
580,olinda,-8.0089,-34.8553,80.33,74,40,13.8,BR,1691263113
581,cox's bazar,21.4532,91.9798,79.86,92,100,9.82,BD,1691263372
582,lhokseumawe,5.1801,97.1507,78.31,87,95,2.8,ID,1691263372
583,sibenik,43.7272,15.9058,73.38,70,36,1.99,HR,1691263372
584,sault ste. marie,46.5168,-84.3333,76.82,41,0,4.61,CA,1691263248
585,laojunmiao,39.8333,97.7333,72.09,32,1,5.53,CN,1691263373
